"","unitid","institution.name","year","HD2013.City.location.of.institution","HD2013.ZIP.code","HD2013.Longitude.location.of.institution","HD2013.Latitude.location.of.institution","IC2013.Applicants.total","IC2013.Number.of.first.time.degree.certificate.seeking.students.submitting.SAT.scores","IC2013.Percent.of.first.time.degree.certificate.seeking.students.submitting.ACT.scores","DRVIC2013.Percent.admitted...total","DRVIC2013.Percent.admitted...men","DRVIC2013.Percent.admitted...women","DRVIC2013.Admissions.yield...full.time","DRVIC2013.Tuition.and.fees..2013.14","HD2013.State.abbreviation","DRVEF122013.12.month.full.time.equivalent.enrollment..2012.13","state.x","city.x","zipcode","rank","centile","superzip","adultpop","college","income","latitude","longitude"
"1",100654,"Alabama A & M University",2013,"Normal","35762",-86.568502,34.783368,6142,167,88,90,87,91,20,7182,"Alabama",4524,"AL","Normal",100654,20,7182,0,4524,90,6142,34.783368,-86.568502
"2",100663,"University of Alabama at Birmingham",2013,"Birmingham","35294-0110",-86.80917,33.50223,5689,103,93,87,88,86,35,7206,"Alabama",16253,"AL","Birmingham",100663,35,7206,0,16253,87,5689,33.50223,-86.80917
"3",100690,"Amridge University",2013,"Montgomery","36117-3553",-86.17401,32.362609,NA,NA,NA,NA,NA,NA,NA,6870,"Alabama",579,"AL","Montgomery",100690,NA,6870,NA,579,NA,NA,32.362609,-86.17401
"4",100706,"University of Alabama in Huntsville",2013,"Huntsville","35899",-86.63842,34.722818,2054,118,94,81,82,78,39,9192,"Alabama",6080,"AL","Huntsville",100706,39,9192,0,6080,81,2054,34.722818,-86.63842
"5",100724,"Alabama State University",2013,"Montgomery","36104-0271",-86.295677,32.364317,10245,269,87,51,48,53,27,8720,"Alabama",5571,"AL","Montgomery",100724,27,8720,0,5571,51,10245,32.364317,-86.295677
"6",100751,"The University of Alabama",2013,"Tuscaloosa","35487-0166",-87.545766,33.2144,30975,1469,76,57,56,57,37,9450,"Alabama",31723,"AL","Tuscaloosa",100751,37,9450,0,31723,57,30975,33.2144,-87.545766
"7",100812,"Athens State University",2013,"Athens","35611",-86.96514,34.805625,NA,NA,NA,NA,NA,NA,NA,NA,"Alabama",2771,"AL","Athens",100812,NA,NA,NA,2771,NA,NA,34.805625,-86.96514
"8",100830,"Auburn University at Montgomery",2013,"Montgomery","36117-3596",-86.177351,32.369939,1958,0,54,84,86,83,32,8750,"Alabama",4092,"AL","Montgomery",100830,32,8750,0,4092,84,1958,32.369939,-86.177351
"9",100858,"Auburn University",2013,"Auburn University","36849",-85.492409,32.600201,15745,617,83,83,83,83,28,9852,"Alabama",23815,"AL","Auburn University",100858,28,9852,0,23815,83,15745,32.600201,-85.492409
"10",100937,"Birmingham Southern College",2013,"Birmingham","35254",-86.853636,33.515453,1931,113,82,64,68,61,29,30690,"Alabama",1331,"AL","Birmingham",100937,29,30690,0,1331,64,1931,33.515453,-86.853636
"11",101073,"Concordia College Alabama",2013,"Selma","36701",-87.023531,32.42443,NA,NA,NA,NA,NA,NA,NA,8090,"Alabama",515,"AL","Selma",101073,NA,8090,NA,515,NA,NA,32.42443,-87.023531
"12",101189,"Faulkner University",2013,"Montgomery","36109-3378",-86.21641,32.384181,NA,NA,NA,NA,NA,NA,NA,18230,"Alabama",3279,"AL","Montgomery",101189,NA,18230,NA,3279,NA,NA,32.384181,-86.21641
"13",101435,"Huntingdon College",2013,"Montgomery","36106-2148",-86.285313,32.350939,1470,43,93,63,61,65,28,23500,"Alabama",1078,"AL","Montgomery",101435,28,23500,0,1078,63,1470,32.350939,-86.285313
"14",101453,"Heritage Christian University",2013,"Florence","35630-9977",-87.662062,34.859089,NA,NA,NA,NA,NA,NA,NA,9792,"Alabama",53,"AL","Florence",101453,NA,9792,NA,53,NA,NA,34.859089,-87.662062
"15",101480,"Jacksonville State University",2013,"Jacksonville","36265",-85.766644,33.822128,3083,203,89,83,83,83,44,7092,"Alabama",7566,"AL","Jacksonville",101480,44,7092,0,7566,83,3083,33.822128,-85.766644
"16",101541,"Judson College",2013,"Marion","36756",-87.316127,32.630526,268,7,94,74,NA,74,34,15630,"Alabama",343,"AL","Marion",101541,34,15630,0,343,74,268,32.630526,-87.316127
"17",101587,"University of West Alabama",2013,"Livingston","35470",-88.186077,32.59244,462,0,100,100,99,100,81,7660,"Alabama",3394,"AL","Livingston",101587,81,7660,0,3394,100,462,32.59244,-88.186077
"18",101675,"Miles College",2013,"Fairfield","35064-2621",-86.908605,33.481306,NA,NA,NA,NA,NA,NA,NA,11454,"Alabama",1681,"AL","Fairfield",101675,NA,11454,NA,1681,NA,NA,33.481306,-86.908605
"19",101693,"University of Mobile",2013,"Mobile","36613-2842",-88.128934,30.793247,866,33,87,71,75,69,42,18690,"Alabama",1434,"AL","Mobile",101693,42,18690,0,1434,71,866,30.793247,-88.128934
"20",101709,"University of Montevallo",2013,"Montevallo","35115-6000",-86.865099,33.10625,1385,16,96,87,90,86,43,10000,"Alabama",2826,"AL","Montevallo",101709,43,10000,0,2826,87,1385,33.10625,-86.865099
"21",101879,"University of North Alabama",2013,"Florence","35632-0001",-87.680999,34.80658,2542,32,96,81,81,81,46,7078,"Alabama",5886,"AL","Florence",101879,46,7078,0,5886,81,2542,34.80658,-87.680999
"22",101912,"Oakwood University",2013,"Huntsville","35896",-86.661628,34.756628,2728,194,58,34,46,30,44,16234,"Alabama",1824,"AL","Huntsville",101912,44,16234,0,1824,34,2728,34.756628,-86.661628
"23",102049,"Samford University",2013,"Birmingham","35229-2240",-86.790932,33.464578,3447,278,84,77,73,79,28,26328,"Alabama",4869,"AL","Birmingham",102049,28,26328,0,4869,77,3447,33.464578,-86.790932
"24",102058,"Selma University",2013,"Selma","36701",-87.033826,32.420358,NA,NA,NA,NA,NA,NA,NA,5840,"Alabama",463,"AL","Selma",102058,NA,5840,NA,463,NA,NA,32.420358,-87.033826
"25",102094,"University of South Alabama",2013,"Mobile","36688-0002",-88.18189,30.695081,4814,158,92,86,84,88,44,6948,"Alabama",13842,"AL","Mobile",102094,44,6948,0,13842,86,4814,30.695081,-88.18189
"26",102234,"Spring Hill College",2013,"Mobile","36608-1791",-88.138199,30.694751,6596,88,92,46,49,45,14,30924,"Alabama",1293,"AL","Mobile",102234,14,30924,0,1293,46,6596,30.694751,-88.138199
"27",102261,"Southeastern Bible College",2013,"Birmingham","35224-2083",-86.749045,33.378935,26,0,59,96,100,94,64,11370,"Alabama",149,"AL","Birmingham",102261,64,11370,0,149,96,26,33.378935,-86.749045
"28",102270,"Stillman College",2013,"Tuscaloosa","35403",-87.585242,33.199228,4121,16,59,43,40,45,13,15901,"Alabama",940,"AL","Tuscaloosa",102270,13,15901,0,940,43,4121,33.199228,-87.585242
"29",102298,"Talladega College",2013,"Talladega","35160",-86.113675,33.434258,NA,NA,NA,NA,NA,NA,NA,11492,"Alabama",542,"AL","Talladega",102298,NA,11492,NA,542,NA,NA,33.434258,-86.113675
"30",102368,"Troy University",2013,"Troy","36082-0001",-85.950191,31.800128,5946,146,38,68,66,70,36,7276,"Alabama",16173,"AL","Troy",102368,36,7276,0,16173,68,5946,31.800128,-85.950191
"31",102377,"Tuskegee University",2013,"Tuskegee","36088-1920",-85.710315,32.431021,10022,277,75,35,34,36,18,18900,"Alabama",3085,"AL","Tuskegee",102377,18,18900,0,3085,35,10022,32.431021,-85.710315
"32",102395,"United States Sports Academy",2013,"Daphne","36526-7055",-87.91163,30.639329,NA,NA,NA,NA,NA,NA,NA,NA,"Alabama",346,"AL","Daphne",102395,NA,NA,NA,346,NA,NA,30.639329,-87.91163
"33",102553,"University of Alaska Anchorage",2013,"Anchorage","99508",-149.826135,61.189554,NA,NA,NA,NA,NA,NA,NA,5147,"Alaska",12483,"AK","Anchorage",102553,NA,5147,NA,12483,NA,NA,61.189554,-149.826135
"34",102580,"Alaska Bible College",2013,"Palmer","99645",-149.111341,61.59843,NA,NA,NA,NA,NA,NA,NA,9200,"Alaska",28,"AK","Palmer",102580,NA,9200,NA,28,NA,NA,61.59843,-149.111341
"35",102614,"University of Alaska Fairbanks",2013,"Fairbanks","99775-7500",-147.824751,64.857053,NA,NA,NA,NA,NA,NA,NA,4984,"Alaska",6397,"AK","Fairbanks",102614,NA,4984,NA,6397,NA,NA,64.857053,-147.824751
"36",102632,"University of Alaska Southeast",2013,"Juneau","99801-8697",-134.636346,58.38427,NA,NA,NA,NA,NA,NA,NA,5693,"Alaska",1935,"AK","Juneau",102632,NA,5693,NA,1935,NA,NA,58.38427,-134.636346
"37",102669,"Alaska Pacific University",2013,"Anchorage","99508",-149.804242,61.191235,494,23,26,37,44,34,17,29810,"Alaska",532,"AK","Anchorage",102669,17,29810,0,532,37,494,61.191235,-149.804242
"38",103778,"Thunderbird School of Global Management",2013,"Glendale","85306-6000",-112.180861,33.620887,NA,NA,NA,NA,NA,NA,NA,NA,"Arizona",963,"AZ","Glendale",103778,NA,NA,NA,963,NA,NA,33.620887,-112.180861
"39",103787,"American Indian College of the Assemblies of God Inc",2013,"Phoenix","85021",-112.092247,33.577738,NA,NA,NA,NA,NA,NA,NA,12000,"Arizona",66,"AZ","Phoenix",103787,NA,12000,NA,66,NA,NA,33.577738,-112.092247
"40",103945,"College America-Flagstaff",2013,"Flagstaff","86004",-111.604793,35.211152,NA,NA,NA,NA,NA,NA,NA,17211,"Arizona",401,"AZ","Flagstaff",103945,NA,17211,NA,401,NA,NA,35.211152,-111.604793
"41",104151,"Arizona State University-Tempe",2013,"Tempe","85287",-111.940011,33.421922,21770,4609,51,80,79,82,41,9861,"Arizona",46649,"AZ","Tempe",104151,41,9861,0,46649,80,21770,33.421922,-111.940011
"42",104179,"University of Arizona",2013,"Tucson","85721-0066",-110.950769,32.232071,26329,4902,52,77,75,79,34,10391,"Arizona",38301,"AZ","Tucson",104179,34,10391,0,38301,77,26329,32.232071,-110.950769
"43",104586,"Embry-Riddle Aeronautical University-Prescott",2013,"Prescott","86301-3720",-112.452285,34.615678,1689,316,53,79,78,82,33,31034,"Arizona",1705,"AZ","Prescott",104586,33,31034,0,1705,79,1689,34.615678,-112.452285
"44",104665,"Frank Lloyd Wright School of Architecture",2013,"Scottsdale","85261-4430",-111.846477,33.60715,NA,NA,NA,NA,NA,NA,NA,NA,"Arizona",30,"AZ","Scottsdale",104665,NA,NA,NA,30,NA,NA,33.60715,-111.846477
"45",105297,"Dine College",2013,"Tsaile","86556",-109.21684,36.293328,NA,NA,NA,NA,NA,NA,NA,805,"Arizona",1357,"AZ","Tsaile",105297,NA,805,NA,1357,NA,NA,36.293328,-109.21684
"46",105330,"Northern Arizona University",2013,"Flagstaff","86011-4132",-111.657653,35.180095,33989,3076,50,91,89,93,14,9738,"Arizona",25767,"AZ","Flagstaff",105330,14,9738,0,25767,91,33989,35.180095,-111.657653
"47",105367,"Ottawa University-Phoenix",2013,"Phoenix","85021",-112.113447,33.577907,NA,NA,NA,NA,NA,NA,NA,NA,"Arizona",821,"AZ","Phoenix",105367,NA,NA,NA,821,NA,NA,33.577907,-112.113447
"48",105589,"Prescott College",2013,"Prescott","86301",-112.476509,34.5445,399,34,21,73,70,74,17,29732,"Arizona",1033,"AZ","Prescott",105589,17,29732,0,1033,73,399,34.5445,-112.476509
"49",105899,"Arizona Christian University",2013,"Phoenix","85032-7097",-112.026211,33.595117,344,35,57,61,59,63,43,21832,"Arizona",526,"AZ","Phoenix",105899,43,21832,0,526,61,344,33.595117,-112.026211
"50",106245,"University of Arkansas at Little Rock",2013,"Little Rock","72204",-92.341835,34.726644,1443,19,82,53,52,54,83,7094,"Arkansas",9730,"AR","Little Rock",106245,83,7094,0,9730,53,1443,34.726644,-92.341835
"51",106263,"University of Arkansas for Medical Sciences",2013,"Little Rock","72205-7199",-92.320945,34.749718,NA,NA,NA,NA,NA,NA,NA,NA,"Arkansas",2478,"AR","Little Rock",106263,NA,NA,NA,2478,NA,NA,34.749718,-92.320945
"52",106306,"Arkansas Baptist College",2013,"Little Rock","72202-6068",-92.290555,34.734751,NA,NA,NA,NA,NA,NA,NA,8040,"Arkansas",877,"AR","Little Rock",106306,NA,8040,NA,877,NA,NA,34.734751,-92.290555
"53",106342,"Lyon College",2013,"Batesville","72501",-91.628115,35.778934,1309,15,95,59,65,56,23,23594,"Arkansas",559,"AR","Batesville",106342,23,23594,0,559,59,1309,35.778934,-91.628115
"54",106397,"University of Arkansas",2013,"Fayetteville","72701",-94.178214,36.06153,18908,1172,91,59,58,59,39,7818,"Arkansas",22641,"AR","Fayetteville",106397,39,7818,0,22641,59,18908,36.06153,-94.178214
"55",106412,"University of Arkansas at Pine Bluff",2013,"Pine Bluff","71601",-92.021263,34.242192,4094,34,94,28,29,27,49,5938,"Arkansas",2558,"AR","Pine Bluff",106412,49,5938,0,2558,28,4094,34.242192,-92.021263
"56",106458,"Arkansas State University-Main Campus",2013,"Jonesboro","72401",-90.680478,35.842779,4838,22,95,76,75,76,43,7510,"Arkansas",12454,"AR","Jonesboro",106458,43,7510,0,12454,76,4838,35.842779,-90.680478
"57",106467,"Arkansas Tech University",2013,"Russellville","72801-2222",-93.13233,35.295227,3847,26,84,85,85,85,51,5598,"Arkansas",9038,"AR","Russellville",106467,51,5598,0,9038,85,3847,35.295227,-93.13233
"58",106485,"University of Arkansas at Monticello",2013,"Monticello","71656",-91.812971,33.589788,NA,NA,NA,NA,NA,NA,NA,5793,"Arkansas",3130,"AR","Monticello",106485,NA,5793,NA,3130,NA,NA,33.589788,-91.812971
"59",106704,"University of Central Arkansas",2013,"Conway","72035-0001",-92.45931,35.078196,3659,0,97,90,88,91,65,7595,"Arkansas",10231,"AR","Conway",106704,65,7595,0,10231,90,3659,35.078196,-92.45931
"60",106713,"Central Baptist College",2013,"Conway","72034",-92.444102,35.084574,540,4,85,54,54,54,41,13350,"Arkansas",742,"AR","Conway",106713,41,13350,0,742,54,540,35.084574,-92.444102
"61",106810,"Crowley's Ridge College",2013,"Paragould","72450",-90.58482,36.066239,NA,NA,NA,NA,NA,NA,NA,10900,"Arkansas",147,"AR","Paragould",106810,NA,10900,NA,147,NA,NA,36.066239,-90.58482
"62",107044,"Harding University",2013,"Searcy","72143",-91.729008,35.249605,2180,300,87,76,78,75,62,16170,"Arkansas",5595,"AR","Searcy",107044,62,16170,0,5595,76,2180,35.249605,-91.729008
"63",107071,"Henderson State University",2013,"Arkadelphia","71999-0001",-93.060313,34.127792,3350,24,94,62,61,63,34,7580,"Arkansas",3528,"AR","Arkadelphia",107071,34,7580,0,3528,62,3350,34.127792,-93.060313
"64",107080,"Hendrix College",2013,"Conway","72032-3080",-92.442021,35.09972,1928,198,82,80,77,84,28,37816,"Arkansas",1457,"AR","Conway",107080,28,37816,0,1457,80,1928,35.09972,-92.442021
"65",107141,"John Brown University",2013,"Siloam Springs","72761",-94.559088,36.191077,1143,92,82,70,74,67,38,22734,"Arkansas",2097,"AR","Siloam Springs",107141,38,22734,0,2097,70,1143,36.191077,-94.559088
"66",107512,"Ouachita Baptist University",2013,"Arkadelphia","71998-0001",-93.052442,34.125045,1740,73,91,70,71,70,32,22370,"Arkansas",1536,"AR","Arkadelphia",107512,32,22370,0,1536,70,1740,34.125045,-93.052442
"67",107558,"University of the Ozarks",2013,"Clarksville","72830",-93.467924,35.477785,1061,25,85,61,62,61,24,24350,"Arkansas",598,"AR","Clarksville",107558,24,24350,0,598,61,1061,35.477785,-93.467924
"68",107600,"Philander Smith College",2013,"Little Rock","72202-3799",-92.28242,34.73666,NA,NA,NA,NA,NA,NA,NA,12564,"Arkansas",624,"AR","Little Rock",107600,NA,12564,NA,624,NA,NA,34.73666,-92.28242
"69",107877,"Williams Baptist College",2013,"Walnut Ridge","72476",-90.939876,36.126825,531,9,94,68,66,70,43,13750,"Arkansas",516,"AR","Walnut Ridge",107877,43,13750,0,516,68,531,36.126825,-90.939876
"70",107983,"Southern Arkansas University Main Campus",2013,"Magnolia","71753",-93.235087,33.291195,2720,40,94,61,63,60,40,7466,"Arkansas",3005,"AR","Magnolia",107983,40,7466,0,3005,61,2720,33.291195,-93.235087
"71",108092,"University of Arkansas-Fort Smith",2013,"Fort Smith","72913-3649",-94.374073,35.385345,3905,29,82,57,57,58,56,4528,"Arkansas",6103,"AR","Fort Smith",108092,56,4528,0,6103,57,3905,35.385345,-94.374073
"72",108269,"Academy of Chinese Culture and Health Sciences",2013,"Oakland","94612",-122.272733,37.806662,NA,NA,NA,NA,NA,NA,NA,NA,"California",141,"CA","Oakland",108269,NA,NA,NA,141,NA,NA,37.806662,-122.272733
"73",108861,"American Baptist Seminary of the West",2013,"Berkeley","94704-3029",-122.256149,37.865252,NA,NA,NA,NA,NA,NA,NA,NA,"California",43,"CA","Berkeley",108861,NA,NA,NA,43,NA,NA,37.865252,-122.256149
"74",108870,"American Film Institute Conservatory",2013,"Los Angeles","90027-1625",-118.309989,34.10846,NA,NA,NA,NA,NA,NA,NA,NA,"California",376,"CA","Los Angeles",108870,NA,NA,NA,376,NA,NA,34.10846,-118.309989
"75",109086,"American Conservatory Theater",2013,"San Francisco","94108-5834",-122.404945,37.787326,NA,NA,NA,NA,NA,NA,NA,NA,"California",52,"CA","San Francisco",109086,NA,NA,NA,52,NA,NA,37.787326,-122.404945
"76",109651,"Art Center College of Design",2013,"Pasadena","91103",-118.186901,34.170844,480,NA,NA,82,71,89,42,36480,"California",2346,"CA","Pasadena",109651,42,36480,0,2346,82,480,34.170844,-118.186901
"77",109785,"Azusa Pacific University",2013,"Azusa","91702-7000",-117.88795,34.130865,5329,1076,42,80,81,79,29,32256,"California",9677,"CA","Azusa",109785,29,32256,0,9677,80,5329,34.130865,-117.88795
"78",110060,"Bethesda University of California",2013,"Anaheim","92801",-117.941323,33.842295,131,NA,NA,83,83,84,71,7620,"California",310,"CA","Anaheim",110060,71,7620,0,310,83,131,33.842295,-117.941323
"79",110097,"Biola University",2013,"La Mirada","90639-0001",-118.017342,33.904823,4816,764,40,73,69,75,26,32142,"California",5325,"CA","La Mirada",110097,26,32142,0,5325,73,4816,33.904823,-118.017342
"80",110307,"Phillips Graduate Institute",2013,"Chatsworth","91311",-118.567621,34.24202,NA,NA,NA,NA,NA,NA,NA,NA,"California",276,"CA","Chatsworth",110307,NA,NA,NA,276,NA,NA,34.24202,-118.567621
"81",110316,"California Institute of Integral Studies",2013,"San Francisco","94103",-122.416537,37.774768,NA,NA,NA,NA,NA,NA,NA,NA,"California",1195,"CA","San Francisco",110316,NA,NA,NA,1195,NA,NA,37.774768,-122.416537
"82",110361,"California Baptist University",2013,"Riverside","92504-3297",-117.42587,33.928569,3853,815,44,79,79,79,32,28122,"California",6085,"CA","Riverside",110361,32,28122,0,6085,79,3853,33.928569,-117.42587
"83",110370,"California College of the Arts",2013,"San Francisco","94107-2247",-122.400263,37.767266,1405,NA,NA,82,78,83,20,40334,"California",1887,"CA","San Francisco",110370,20,40334,0,1887,82,1405,37.767266,-122.400263
"84",110398,"University of California-Hastings College of Law",2013,"San Francisco","94102-4978",-122.415395,37.780718,NA,NA,NA,NA,NA,NA,NA,NA,"California",1180,"CA","San Francisco",110398,NA,NA,NA,1180,NA,NA,37.780718,-122.415395
"85",110404,"California Institute of Technology",2013,"Pasadena","91125",-118.12574,34.139275,5535,220,43,11,8,17,43,41538,"California",2246,"CA","Pasadena",110404,43,41538,1,2246,11,5535,34.139275,-118.12574
"86",110413,"California Lutheran University",2013,"Thousand Oaks","91360-2787",-118.879467,34.225551,6920,452,42,48,47,49,16,35720,"California",4201,"CA","Thousand Oaks",110413,16,35720,0,4201,48,6920,34.225551,-118.879467
"87",110422,"California Polytechnic State University-San Luis Obispo",2013,"San Luis Obispo","93407",-120.65856,35.29889,36941,3193,62,31,29,34,31,8724,"California",17345,"CA","San Luis Obispo",110422,31,8724,0,17345,31,36941,35.29889,-120.65856
"88",110468,"Alliant International University",2013,"San Diego","92131-1799",-117.094398,32.897056,128,NA,NA,49,43,54,41,15816,"California",3217,"CA","San Diego",110468,41,15816,0,3217,49,128,32.897056,-117.094398
"89",110486,"California State University-Bakersfield",2013,"Bakersfield","93311-1099",-119.104711,35.350005,6630,1200,24,66,64,68,29,6775,"California",7564,"CA","Bakersfield",110486,29,6775,0,7564,66,6630,35.350005,-119.104711
"90",110495,"California State University-Stanislaus",2013,"Turlock","95382-0299",-120.852511,37.52577,5763,949,35,72,66,76,26,6491,"California",7054,"CA","Turlock",110495,26,6491,0,7054,72,5763,37.52577,-120.852511
"91",110510,"California State University-San Bernardino",2013,"San Bernardino","92407-2397",-117.322508,34.182987,12239,2313,37,58,56,59,34,6550,"California",15748,"CA","San Bernardino",110510,34,6550,0,15748,58,12239,34.182987,-117.322508
"92",110529,"California State Polytechnic University-Pomona",2013,"Pomona","91768",-117.819019,34.054273,28143,2951,27,52,49,55,21,6350,"California",18141,"CA","Pomona",110529,21,6350,0,18141,52,28143,34.054273,-117.819019
"93",110538,"California State University-Chico",2013,"Chico","95929-0150",-121.846333,39.728003,17215,2439,36,72,70,73,22,6972,"California",14838,"CA","Chico",110538,22,6972,0,14838,72,17215,39.728003,-121.846333
"94",110547,"California State University-Dominguez Hills",2013,"Carson","90747-0005",-118.259316,33.86524,14742,976,21,57,53,60,13,6100,"California",9862,"CA","Carson",110547,13,6100,0,9862,57,14742,33.86524,-118.259316
"95",110556,"California State University-Fresno",2013,"Fresno","93740",-119.748258,36.814477,16242,2786,39,58,54,62,32,6287,"California",18993,"CA","Fresno",110556,32,6287,0,18993,58,16242,36.814477,-119.748258
"96",110565,"California State University-Fullerton",2013,"Fullerton","92831-3599",-117.885349,33.883627,38909,4293,34,46,46,46,25,6186,"California",28947,"CA","Fullerton",110565,25,6186,0,28947,46,38909,33.883627,-117.885349
"97",110574,"California State University-East Bay",2013,"Hayward","94542",-122.058073,37.65707,12741,1434,32,69,65,71,18,6550,"California",12957,"CA","Hayward",110574,18,6550,0,12957,69,12741,37.65707,-122.058073
"98",110583,"California State University-Long Beach",2013,"Long Beach","90840-0115",-118.1123,33.782752,55019,4045,33,31,30,32,24,6240,"California",28287,"CA","Long Beach",110583,24,6240,0,28287,31,55019,33.782752,-118.1123
"99",110592,"California State University-Los Angeles",2013,"Los Angeles","90032",-118.168965,34.066927,27321,2770,32,68,64,70,15,6344,"California",17545,"CA","Los Angeles",110592,15,6344,0,17545,68,27321,34.066927,-118.168965
"100",110608,"California State University-Northridge",2013,"Northridge","91330",-118.526817,34.23671,29339,3759,25,46,45,47,30,6525,"California",28060,"CA","Northridge",110608,30,6525,0,28060,46,29339,34.23671,-118.526817
"101",110617,"California State University-Sacramento",2013,"Sacramento","95819-2694",-121.42194,38.55745,19702,2885,34,70,67,71,22,6628,"California",22234,"CA","Sacramento",110617,22,6628,0,22234,70,19702,38.55745,-121.42194
"102",110635,"University of California-Berkeley",2013,"Berkeley","94720",-122.260401,37.871519,61717,3795,40,18,17,19,37,12864,"California",38240,"CA","Berkeley",110635,37,12864,0,38240,18,61717,37.871519,-122.260401
"103",110644,"University of California-Davis",2013,"Davis","95616-8678",-121.751958,38.539895,49820,4876,45,45,41,48,23,13895,"California",32172,"CA","Davis",110644,23,13895,0,32172,45,49820,38.539895,-121.751958
"104",110653,"University of California-Irvine",2013,"Irvine","92697",-117.841248,33.648434,56515,4848,41,42,40,44,21,13149,"California",29232,"CA","Irvine",110653,21,13149,0,29232,42,56515,33.648434,-117.841248
"105",110662,"University of California-Los Angeles",2013,"Los Angeles","90095-1405",-118.443901,34.068892,72676,5166,41,22,21,23,35,12697,"California",41071,"CA","Los Angeles",110662,35,12697,0,41071,22,72676,34.068892,-118.443901
"106",110671,"University of California-Riverside",2013,"Riverside","92521",-117.331098,33.97588,30391,3909,40,62,63,62,21,12960,"California",20647,"CA","Riverside",110671,21,12960,0,20647,62,30391,33.97588,-117.331098
"107",110680,"University of California-San Diego",2013,"La Jolla","92093",-117.237793,32.876598,60832,4274,39,38,38,37,20,13271,"California",30027,"CA","La Jolla",110680,20,13271,0,30027,38,60832,32.876598,-117.237793
"108",110699,"University of California-San Francisco",2013,"San Francisco","94143-0244",-122.458049,37.762736,NA,NA,NA,NA,NA,NA,NA,NA,"California",3081,"CA","San Francisco",110699,NA,NA,NA,3081,NA,NA,37.762736,-122.458049
"109",110705,"University of California-Santa Barbara",2013,"Santa Barbara","93106",-119.848031,34.415402,55258,4425,47,44,44,45,19,13746,"California",22806,"CA","Santa Barbara",110705,19,13746,0,22806,44,55258,34.415402,-119.848031
"110",110714,"University of California-Santa Cruz",2013,"Santa Cruz","95064-1011",-122.067993,36.997258,33137,3539,43,60,55,64,19,13397,"California",17751,"CA","Santa Cruz",110714,19,13397,0,17751,60,33137,36.997258,-122.067993
"111",110778,"Sofia University",2013,"Palo Alto","94303",-122.10866,37.430325,NA,NA,NA,NA,NA,NA,NA,NA,"California",401,"CA","Palo Alto",110778,NA,NA,NA,401,NA,NA,37.430325,-122.10866
"112",110918,"California Christian College",2013,"Fresno","93703-3599",-119.732752,36.767596,12,NA,NA,83,83,83,60,8275,"California",22,"CA","Fresno",110918,60,8275,0,22,83,12,36.767596,-119.732752
"113",110945,"California College San Diego",2013,"San Diego","92111-1009",-117.167121,32.83529,NA,NA,NA,NA,NA,NA,NA,18480,"California",1577,"CA","San Diego",110945,NA,18480,NA,1577,NA,NA,32.83529,-117.167121
"114",111081,"California Institute of the Arts",2013,"Valencia","91355-2397",-118.567303,34.393337,1230,NA,NA,30,30,30,47,40536,"California",1427,"CA","Valencia",111081,47,40536,0,1427,30,1230,34.393337,-118.567303
"115",111188,"California Maritime Academy",2013,"Vallejo","94590",-122.231551,38.069061,893,171,46,75,77,66,29,6536,"California",1209,"CA","Vallejo",111188,29,6536,0,1209,75,893,38.069061,-122.231551
"116",111391,"California Western School of Law",2013,"San Diego","92101-3046",-117.162597,32.72194,NA,NA,NA,NA,NA,NA,NA,NA,"California",743,"CA","San Diego",111391,NA,NA,NA,743,NA,NA,32.72194,-117.162597
"117",111948,"Chapman University",2013,"Orange","92866",-117.851481,33.793678,11750,1007,51,45,45,45,24,43573,"California",7716,"CA","Orange",111948,24,43573,0,7716,45,11750,33.793678,-117.851481
"118",111966,"Charles R Drew University of Medicine and Science",2013,"Los Angeles","90059",-118.242791,33.925658,9,4,0,89,100,86,63,11956,"California",665,"CA","Los Angeles",111966,63,11956,0,665,89,9,33.925658,-118.242791
"119",112075,"Concordia University-Irvine",2013,"Irvine","92612-3203",-117.81063,33.6535,2055,310,38,91,89,92,20,29630,"California",3773,"CA","Irvine",112075,20,29630,0,3773,91,2055,33.6535,-117.81063
"120",112084,"San Diego Christian College",2013,"El Cajon","92019-1157",-116.903073,32.799999,561,67,42,49,46,52,36,25888,"California",783,"CA","El Cajon",112084,36,25888,0,783,49,561,32.799999,-116.903073
"121",112127,"Church Divinity School of the Pacific",2013,"Berkeley","94709-1211",-122.261391,37.876169,NA,NA,NA,NA,NA,NA,NA,NA,"California",57,"CA","Berkeley",112127,NA,NA,NA,57,NA,NA,37.876169,-122.261391
"122",112251,"Claremont Graduate University",2013,"Claremont","91711-6160",-117.712394,34.103778,NA,NA,NA,NA,NA,NA,NA,NA,"California",1191,"CA","Claremont",112251,NA,NA,NA,1191,NA,NA,34.103778,-117.712394
"123",112260,"Claremont McKenna College",2013,"Claremont","91711-6400",-117.706593,34.102323,5518,196,42,12,12,11,52,45625,"California",1313,"CA","Claremont",112260,52,45625,1,1313,12,5518,34.102323,-117.706593
"124",112446,"Coleman University",2013,"San Diego","92123-1506",-117.136493,32.821962,82,NA,NA,100,100,100,73,20200,"California",1212,"CA","San Diego",112446,73,20200,0,1212,100,82,32.821962,-117.136493
"125",112525,"Western University of Health Sciences",2013,"Pomona","91766-1854",-117.747732,34.058092,NA,NA,NA,NA,NA,NA,NA,NA,"California",3555,"CA","Pomona",112525,NA,NA,NA,3555,NA,NA,34.058092,-117.747732
"126",112570,"Columbia College-Hollywood",2013,"Tarzana","91356-1411",-118.538394,34.179596,250,NA,NA,55,58,51,46,18804,"California",368,"CA","Tarzana",112570,46,18804,0,368,55,250,34.179596,-118.538394
"127",113537,"Dell'Arte International School of Physical Theatre",2013,"Blue Lake","95525-0816",-123.988878,40.880871,3,NA,NA,67,100,50,50,12750,"California",92,"CA","Blue Lake",113537,50,12750,0,92,67,3,40.880871,-123.988878
"128",113698,"Dominican University of California",2013,"San Rafael","94901-2298",-122.514654,37.980014,2322,265,38,78,81,76,17,40600,"California",1928,"CA","San Rafael",113698,17,40600,0,1928,78,2322,37.980014,-122.514654
"129",113704,"Dominican School of Philosophy & Theology",2013,"Berkeley","94708-1816",-122.264612,37.881099,NA,NA,NA,NA,NA,NA,NA,NA,"California",69,"CA","Berkeley",113704,NA,NA,NA,69,NA,NA,37.881099,-122.264612
"130",114549,"Fielding Graduate University",2013,"Santa Barbara","93105-3538",-119.717151,34.4294,NA,NA,NA,NA,NA,NA,NA,NA,"California",954,"CA","Santa Barbara",114549,NA,NA,NA,954,NA,NA,34.4294,-119.717151
"131",114734,"Franciscan School of Theology",2013,"Berkeley","94709-1208",-122.260924,37.877133,NA,NA,NA,NA,NA,NA,NA,NA,"California",31,"CA","Berkeley",114734,NA,NA,NA,31,NA,NA,37.877133,-122.260924
"132",114813,"Fresno Pacific University",2013,"Fresno","93702-4709",-119.731953,36.725279,705,208,39,78,77,79,38,25716,"California",3083,"CA","Fresno",114813,38,25716,0,3083,78,705,36.725279,-119.731953
"133",114840,"Fuller Theological Seminary in California",2013,"Pasadena","91182",-118.140261,34.14778,NA,NA,NA,NA,NA,NA,NA,NA,"California",2308,"CA","Pasadena",114840,NA,NA,NA,2308,NA,NA,34.14778,-118.140261
"134",115083,"Golden Gate University-San Francisco",2013,"San Francisco","94105-2968",-122.398785,37.789208,0,NA,NA,NA,NA,NA,NA,14400,"California",2650,"CA","San Francisco",115083,NA,14400,NA,2650,NA,0,37.789208,-122.398785
"135",115214,"Graduate Theological Union",2013,"Berkeley","94709",-122.261847,37.87554,NA,NA,NA,NA,NA,NA,NA,NA,"California",242,"CA","Berkeley",115214,NA,NA,NA,242,NA,NA,37.87554,-122.261847
"136",115409,"Harvey Mudd College",2013,"Claremont","91711",-117.710594,34.106137,3539,193,41,18,13,32,34,46509,"California",788,"CA","Claremont",115409,34,46509,0,788,18,3539,34.106137,-117.710594
"137",115728,"Holy Names University",2013,"Oakland","94619-1699",-122.18717,37.802654,561,84,40,57,50,61,27,33020,"California",1167,"CA","Oakland",115728,27,33020,0,1167,57,561,37.802654,-122.18717
"138",115755,"Humboldt State University",2013,"Arcata","95521-8299",-124.0814,40.8741,9978,1148,37,80,78,82,15,7144,"California",7353,"CA","Arcata",115755,15,7144,0,7353,80,9978,40.8741,-124.0814
"139",115773,"Humphreys College-Stockton and Modesto Campuses",2013,"Stockton","95207-3896",-121.316401,38.011051,NA,NA,NA,NA,NA,NA,NA,11277,"California",1384,"CA","Stockton",115773,NA,11277,NA,1384,NA,NA,38.011051,-121.316401
"140",116712,"John F Kennedy University",2013,"Pleasant Hill","94523-4817",-122.183972,37.881794,NA,NA,NA,NA,NA,NA,NA,NA,"California",1233,"CA","Pleasant Hill",116712,NA,NA,NA,1233,NA,NA,37.881794,-122.183972
"141",116846,"American Jewish University",2013,"Los Angeles","90077-1519",-118.471764,34.128099,100,NA,NA,59,59,59,39,27900,"California",250,"CA","Los Angeles",116846,39,27900,0,250,59,100,34.128099,-118.471764
"142",117104,"Life Pacific College",2013,"San Dimas","91773-3298",-117.830997,34.089421,139,43,39,75,74,76,74,12500,"California",481,"CA","San Dimas",117104,74,12500,0,481,75,139,34.089421,-117.830997
"143",117140,"University of La Verne",2013,"La Verne","91750-4401",-117.772634,34.10086,6989,567,31,39,37,40,23,35000,"California",7190,"CA","La Verne",117140,23,35000,0,7190,39,6989,34.10086,-117.772634
"144",117168,"Laguna College of Art and Design",2013,"Laguna Beach","92651",-117.772564,33.561448,490,NA,NA,43,45,43,32,26500,"California",462,"CA","Laguna Beach",117168,32,26500,0,462,43,490,33.561448,-117.772564
"145",117520,"Life Chiropractic College West",2013,"Hayward","94545-2800",-122.11627,37.637639,NA,NA,NA,NA,NA,NA,NA,NA,"California",446,"CA","Hayward",117520,NA,NA,NA,446,NA,NA,37.637639,-122.11627
"146",117557,"Lincoln University",2013,"Oakland","94612-2801",-122.269745,37.804788,NA,NA,NA,NA,NA,NA,NA,10105,"California",282,"CA","Oakland",117557,NA,10105,NA,282,NA,NA,37.804788,-122.269745
"147",117575,"Southern California Seminary",2013,"El Cajon","92019-1108",-116.900531,32.803259,NA,NA,NA,NA,NA,NA,NA,13692,"California",180,"CA","El Cajon",117575,NA,13692,NA,180,NA,NA,32.803259,-116.900531
"148",117627,"La Sierra University",2013,"Riverside","92515-8247",-117.497071,33.908834,3479,413,29,47,45,48,29,29103,"California",2205,"CA","Riverside",117627,29,29103,0,2205,47,3479,33.908834,-117.497071
"149",117636,"Loma Linda University",2013,"Loma Linda","92350",-117.261056,34.051518,NA,NA,NA,NA,NA,NA,NA,NA,"California",4553,"CA","Loma Linda",117636,NA,NA,NA,4553,NA,NA,34.051518,-117.261056
"150",117672,"Southern California University of Health Sciences",2013,"Whittier","90604",-117.985447,33.924638,NA,NA,NA,NA,NA,NA,NA,NA,"California",956,"CA","Whittier",117672,NA,NA,NA,956,NA,NA,33.924638,-117.985447
"151",117751,"The Master's College and Seminary",2013,"Santa Clarita","91321-1200",-118.517422,34.38214,849,165,35,61,63,60,40,28800,"California",1693,"CA","Santa Clarita",117751,40,28800,0,1693,61,849,34.38214,-118.517422
"152",117946,"Loyola Marymount University",2013,"Los Angeles","90045-2659",-118.415655,33.970633,11472,1058,44,54,53,55,22,40265,"California",8449,"CA","Los Angeles",117946,22,40265,0,8449,54,11472,33.970633,-118.415655
"153",118541,"Marymount California University",2013,"Rancho Palos Verdes","90275-6299",-118.333404,33.73463,NA,NA,NA,NA,NA,NA,NA,30579,"California",932,"CA","Rancho Palos Verdes",118541,NA,30579,NA,932,NA,NA,33.73463,-118.333404
"154",118693,"Menlo College",2013,"Atherton","94027-4301",-122.181444,37.452906,4100,109,31,37,40,34,9,37100,"California",723,"CA","Atherton",118693,9,37100,0,723,37,4100,37.452906,-122.181444
"155",118888,"Mills College",2013,"Oakland","94613",-122.18789,37.782639,1827,188,36,68,NA,68,17,41494,"California",1564,"CA","Oakland",118888,17,41494,0,1564,68,1827,37.782639,-122.18789
"156",119058,"Monterey Institute of International Studies",2013,"Monterey","93940",-121.896813,36.599827,NA,NA,NA,NA,NA,NA,NA,NA,"California",940,"CA","Monterey",119058,NA,NA,NA,940,NA,NA,36.599827,-121.896813
"157",119173,"Mount St Mary's College",2013,"Los Angeles","90049-1599",-118.480471,34.082112,2316,507,35,74,39,76,32,33852,"California",2530,"CA","Los Angeles",119173,32,33852,0,2530,74,2316,34.082112,-118.480471
"158",119605,"National University",2013,"La Jolla","92037-1011",-117.244243,32.909469,NA,NA,NA,NA,NA,NA,NA,12096,"California",24215,"CA","La Jolla",119605,NA,12096,NA,24215,NA,NA,32.909469,-117.244243
"159",120184,"Notre Dame de Namur University",2013,"Belmont","94002-1908",-122.284618,37.517501,1922,133,45,87,86,88,10,31126,"California",1573,"CA","Belmont",120184,10,31126,0,1573,87,1922,37.517501,-122.284618
"160",120254,"Occidental College",2013,"Los Angeles","90041-3392",-118.210783,34.126224,6072,437,46,42,39,44,21,46652,"California",2276,"CA","Los Angeles",120254,21,46652,0,2276,42,6072,34.126224,-118.210783
"161",120403,"Otis College of Art and Design",2013,"Los Angeles","90045-3505",-118.416615,33.956607,1584,97,16,46,43,48,22,39430,"California",1245,"CA","Los Angeles",120403,22,39430,0,1245,46,1584,33.956607,-118.416615
"162",120537,"Hope International University",2013,"Fullerton","92831-3199",-117.88573,33.87616,408,62,37,47,56,41,36,26050,"California",1027,"CA","Fullerton",120537,36,26050,0,1027,47,408,33.87616,-117.88573
"163",120698,"Palo Alto University",2013,"Palo Alto","94304-1337",-122.186022,37.383251,NA,NA,NA,NA,NA,NA,NA,NA,"California",837,"CA","Palo Alto",120698,NA,NA,NA,837,NA,NA,37.383251,-122.186022
"164",120740,"Pacific Lutheran Theological Seminary",2013,"Berkeley","94708-1597",-122.260201,37.898172,NA,NA,NA,NA,NA,NA,NA,NA,"California",85,"CA","Berkeley",120740,NA,NA,NA,85,NA,NA,37.898172,-122.260201
"165",120768,"Pacific Oaks College",2013,"Pasadena","91103",-118.15158,34.153088,NA,NA,NA,NA,NA,NA,NA,NA,"California",971,"CA","Pasadena",120768,NA,NA,NA,971,NA,NA,34.153088,-118.15158
"166",120795,"Pacific School of Religion",2013,"Berkeley","94709",-122.263331,37.876599,NA,NA,NA,NA,NA,NA,NA,NA,"California",134,"CA","Berkeley",120795,NA,NA,NA,134,NA,NA,37.876599,-122.263331
"167",120838,"Pacific States University",2013,"Los Angeles","90010",-118.299841,34.0607,NA,NA,NA,NA,NA,NA,NA,19340,"California",176,"CA","Los Angeles",120838,NA,19340,NA,176,NA,NA,34.0607,-118.299841
"168",120865,"Pacific Union College",2013,"Angwin","94508-9707",-122.449639,38.57409,2103,263,30,51,52,50,31,27480,"California",1484,"CA","Angwin",120865,31,27480,0,1484,51,2103,38.57409,-122.449639
"169",120883,"University of the Pacific",2013,"Stockton","95211-0197",-121.307296,37.980624,14222,855,39,73,75,71,9,39810,"California",7495,"CA","Stockton",120883,9,39810,0,7495,73,14222,37.980624,-121.307296
"170",121150,"Pepperdine University",2013,"Malibu","90263",-118.707677,34.041912,9721,592,0,37,43,34,22,44902,"California",7404,"CA","Malibu",121150,22,44902,0,7404,37,9721,34.041912,-118.707677
"171",121257,"Pitzer College",2013,"Claremont","91711-6101",-117.705939,34.103408,4115,NA,NA,15,18,13,44,45018,"California",1037,"CA","Claremont",121257,44,45018,0,1037,15,4115,34.103408,-117.705939
"172",121309,"Point Loma Nazarene University",2013,"San Diego","92106-2899",-117.251204,32.713295,3138,556,48,67,75,63,31,30356,"California",3189,"CA","San Diego",121309,31,30356,0,3189,67,3138,32.713295,-117.251204
"173",121345,"Pomona College",2013,"Claremont","91711-6319",-117.711944,34.098298,7153,311,51,14,17,12,40,43580,"California",1590,"CA","Claremont",121345,40,43580,1,1590,14,7153,34.098298,-117.711944
"174",121628,"Pardee RAND Graduate School",2013,"Santa Monica","90407-2138",-118.49047,34.009975,NA,NA,NA,NA,NA,NA,NA,NA,"California",52,"CA","Santa Monica",121628,NA,NA,NA,52,NA,NA,34.009975,-118.49047
"175",121691,"University of Redlands",2013,"Redlands","92373-0999",-117.163847,34.063571,4668,472,37,67,66,68,21,41290,"California",4854,"CA","Redlands",121691,21,41290,0,4854,67,4668,34.063571,-117.163847
"176",122117,"Dongguk University-Los Angeles",2013,"Los Angeles","90020-1704",-118.289927,34.066226,NA,NA,NA,NA,NA,NA,NA,NA,"California",359,"CA","Los Angeles",122117,NA,NA,NA,359,NA,NA,34.066226,-118.289927
"177",122296,"Samuel Merritt University",2013,"Oakland","94609",-122.266854,37.819955,NA,NA,NA,NA,NA,NA,NA,NA,"California",1852,"CA","Oakland",122296,NA,NA,NA,1852,NA,NA,37.819955,-122.266854
"178",122409,"San Diego State University",2013,"San Diego","92182",-117.071228,32.77525,51163,3879,42,31,29,33,24,6766,"California",27516,"CA","San Diego",122409,24,6766,0,27516,31,51163,32.77525,-117.071228
"179",122436,"University of San Diego",2013,"San Diego","92110-2492",-117.188721,32.77142,14693,903,53,49,46,51,17,41392,"California",8528,"CA","San Diego",122436,17,41392,0,8528,49,14693,32.77142,-117.188721
"180",122454,"San Francisco Art Institute",2013,"San Francisco","94133-2299",-122.417,37.803575,416,32,11,83,77,85,21,38406,"California",654,"CA","San Francisco",122454,21,38406,0,654,83,416,37.803575,-122.417
"181",122506,"San Francisco Conservatory of Music",2013,"San Francisco","94102-6011",-122.420143,37.775322,296,NA,NA,40,41,39,28,39580,"California",421,"CA","San Francisco",122506,28,39580,0,421,40,296,37.775322,-122.420143
"182",122597,"San Francisco State University",2013,"San Francisco","94132",-122.477905,37.721345,31462,3520,23,64,61,66,19,6450,"California",24645,"CA","San Francisco",122597,19,6450,0,24645,64,31462,37.721345,-122.477905
"183",122603,"San Francisco Theological Seminary",2013,"San Anselmo","94960-0000",-122.564302,37.969594,NA,NA,NA,NA,NA,NA,NA,NA,"California",107,"CA","San Anselmo",122603,NA,NA,NA,107,NA,NA,37.969594,-122.564302
"184",122612,"University of San Francisco",2013,"San Francisco","94117-1080",-122.450977,37.775564,14808,865,43,61,61,61,13,40294,"California",9784,"CA","San Francisco",122612,13,40294,0,9784,61,14808,37.775564,-122.450977
"185",122649,"San Joaquin College of Law",2013,"Clovis","93612-1312",-119.6978,36.823978,NA,NA,NA,NA,NA,NA,NA,NA,"California",171,"CA","Clovis",122649,NA,NA,NA,171,NA,NA,36.823978,-119.6978
"186",122728,"William Jessup University",2013,"Rocklin","95765-3707",-121.292312,38.819728,482,148,37,69,69,69,47,24040,"California",1043,"CA","Rocklin",122728,47,24040,0,1043,69,482,38.819728,-121.292312
"187",122755,"San Jose State University",2013,"San Jose","95192-0001",-121.881214,37.335201,25155,3177,24,63,62,65,21,7343,"California",23357,"CA","San Jose",122755,21,7343,0,23357,63,25155,37.335201,-121.881214
"188",122931,"Santa Clara University",2013,"Santa Clara","95053",-121.938189,37.352706,14339,1014,48,51,51,51,17,42156,"California",10961,"CA","Santa Clara",122931,17,42156,0,10961,51,14339,37.352706,-121.938189
"189",123095,"Saybrook University",2013,"San Francisco","94111-1920",-122.400088,37.798417,NA,NA,NA,NA,NA,NA,NA,NA,"California",557,"CA","San Francisco",123095,NA,NA,NA,557,NA,NA,37.798417,-122.400088
"190",123165,"Scripps College",2013,"Claremont","91711-3905",-117.711336,34.103655,2378,198,43,36,NA,36,32,45564,"California",975,"CA","Claremont",123165,32,45564,0,975,36,2378,34.103655,-117.711336
"191",123280,"Shasta Bible College and Graduate School",2013,"Redding","96002",-122.315742,40.564208,11,NA,NA,100,100,100,64,10360,"California",50,"CA","Redding",123280,64,10360,0,50,100,11,40.564208,-122.315742
"192",123448,"Trinity Law School",2013,"Santa Ana","92705",-117.852059,33.766071,NA,NA,NA,NA,NA,NA,NA,NA,"California",249,"CA","Santa Ana",123448,NA,NA,NA,249,NA,NA,33.766071,-117.852059
"193",123457,"Simpson University",2013,"Redding","96003-8606",-122.333048,40.61331,573,128,33,55,51,57,47,23300,"California",1180,"CA","Redding",123457,47,23300,0,1180,55,573,40.61331,-122.333048
"194",123554,"Saint Mary's College of California",2013,"Moraga","94575",-122.106795,37.83997,4864,499,43,69,72,68,18,39890,"California",4024,"CA","Moraga",123554,18,39890,0,4024,69,4864,37.83997,-122.106795
"195",123572,"Sonoma State University",2013,"Rohnert Park","94928-3609",-122.673261,38.341023,13142,1619,38,82,79,84,16,7234,"California",7796,"CA","Rohnert Park",123572,16,7234,0,7796,82,13142,38.341023,-122.673261
"196",123633,"South Baylo University",2013,"Anaheim","92801-1701",-117.958663,33.847936,NA,NA,NA,NA,NA,NA,NA,NA,"California",857,"CA","Anaheim",123633,NA,NA,NA,857,NA,NA,33.847936,-117.958663
"197",123651,"Vanguard University of Southern California",2013,"Costa Mesa","92626",-117.900911,33.662686,1495,342,29,70,66,71,37,29250,"California",2104,"CA","Costa Mesa",123651,37,29250,0,2104,70,1495,33.662686,-117.900911
"198",123916,"Starr King School for Ministry",2013,"Berkeley","94709-1209",-122.261778,37.876939,NA,NA,NA,NA,NA,NA,NA,NA,"California",67,"CA","Berkeley",123916,NA,NA,NA,67,NA,NA,37.876939,-122.261778
"199",123943,"Marshall B Ketchum University",2013,"Fullerton","92831-1699",-117.886158,33.889819,NA,NA,NA,NA,NA,NA,NA,NA,"California",407,"CA","Fullerton",123943,NA,NA,NA,407,NA,NA,33.889819,-117.886158
"200",123952,"Southern California Institute of Architecture",2013,"Los Angeles","90013-1822",-118.232703,34.04365,180,28,13,87,84,89,21,37300,"California",486,"CA","Los Angeles",123952,21,37300,0,486,87,180,34.04365,-118.232703
"201",123961,"University of Southern California",2013,"Los Angeles","90089",-118.283858,34.021058,47358,2320,41,20,20,20,31,46298,"California",35913,"CA","Los Angeles",123961,31,46298,0,35913,20,47358,34.021058,-118.283858
"202",123970,"Southwestern Law School",2013,"Los Angeles","90010-1106",-118.288375,34.061558,NA,NA,NA,NA,NA,NA,NA,NA,"California",1047,"CA","Los Angeles",123970,NA,NA,NA,1047,NA,NA,34.061558,-118.288375
"203",124283,"Claremont School of Theology",2013,"Claremont","91711-3199",-117.715256,34.107602,NA,NA,NA,NA,NA,NA,NA,NA,"California",217,"CA","Claremont",124283,NA,NA,NA,217,NA,NA,34.107602,-117.715256
"204",124292,"Thomas Aquinas College",2013,"Santa Paula","93060",-119.087141,34.429009,178,74,31,79,79,80,62,24500,"California",444,"CA","Santa Paula",124292,62,24500,0,444,79,178,34.429009,-119.087141
"205",124487,"Epic Bible College",2013,"Sacramento","95841",-121.362311,38.64491,100,NA,NA,79,74,83,25,9690,"California",199,"CA","Sacramento",124487,25,9690,0,199,79,100,38.64491,-121.362311
"206",125718,"Westminster Theological Seminary in California",2013,"Escondido","92027",-117.046371,33.121447,NA,NA,NA,NA,NA,NA,NA,NA,"California",148,"CA","Escondido",125718,NA,NA,NA,148,NA,NA,33.121447,-117.046371
"207",125727,"Westmont College",2013,"Santa Barbara","93108-1089",-119.661932,34.449265,2145,234,50,70,71,70,20,38510,"California",1416,"CA","Santa Barbara",125727,20,38510,0,1416,70,2145,34.449265,-119.661932
"208",125763,"Whittier College",2013,"Whittier","90601",-118.028402,33.977625,4381,380,34,63,60,65,16,40296,"California",2308,"CA","Whittier",125763,16,40296,0,2308,63,4381,33.977625,-118.028402
"209",125897,"Woodbury University",2013,"Burbank","91510-7846",-118.340692,34.209226,879,81,23,56,73,43,23,33150,"California",1729,"CA","Burbank",125897,23,33150,0,1729,56,879,34.209226,-118.340692
"210",126012,"The Wright Institute",2013,"Berkeley","94704-1796",-122.253168,37.868221,NA,NA,NA,NA,NA,NA,NA,NA,"California",438,"CA","Berkeley",126012,NA,NA,NA,438,NA,NA,37.868221,-122.253168
"211",126049,"Thomas Jefferson School of Law",2013,"San Diego","92101",-117.154191,32.71013,NA,NA,NA,NA,NA,NA,NA,NA,"California",920,"CA","San Diego",126049,NA,NA,NA,920,NA,NA,32.71013,-117.154191
"212",126076,"Yeshiva Ohr Elchonon Chabad West Coast Talmudical Seminary",2013,"Los Angeles","90046",-118.346688,34.085494,48,NA,NA,100,100,NA,100,13300,"California",192,"CA","Los Angeles",126076,100,13300,0,192,100,48,34.085494,-118.346688
"213",126182,"Adams State University",2013,"Alamosa","81101",-105.880943,37.477238,2658,85,90,53,51,54,36,7449,"Colorado",2805,"CO","Alamosa",126182,36,7449,0,2805,53,2658,37.477238,-105.880943
"214",126562,"University of Colorado Denver",2013,"Denver","80217-3364",-104.999181,39.74603,3075,180,86,76,69,82,40,7933,"Colorado",17002,"CO","Denver",126562,40,7933,0,17002,76,3075,39.74603,-104.999181
"215",126580,"University of Colorado Colorado Springs",2013,"Colorado Springs","80918",-104.800296,38.892735,7034,326,90,91,90,92,24,7024,"Colorado",8710,"CO","Colorado Springs",126580,24,7024,0,8710,91,7034,38.892735,-104.800296
"216",126614,"University of Colorado Boulder",2013,"Boulder","80309-0017",-105.267061,40.004415,22473,2607,75,88,86,90,29,10347,"Colorado",28861,"CO","Boulder",126614,29,10347,0,28861,88,22473,40.004415,-105.267061
"217",126669,"Colorado Christian University",2013,"Lakewood","80226",-105.094836,39.711701,1186,NA,NA,98,98,97,27,25046,"Colorado",2959,"CO","Lakewood",126669,27,25046,0,2959,98,1186,39.711701,-105.094836
"218",126678,"Colorado College",2013,"Colorado Springs","80903",-104.82422,38.84657,5780,255,47,22,21,24,41,44222,"Colorado",2066,"CO","Colorado Springs",126678,41,44222,0,2066,22,5780,38.84657,-104.82422
"219",126711,"Colorado Mountain College",2013,"Glenwood Springs","81601-0233",-107.324391,39.54636,NA,NA,NA,NA,NA,NA,NA,1524,"Colorado",3463,"CO","Glenwood Springs",126711,NA,1524,NA,3463,NA,NA,39.54636,-107.324391
"220",126775,"Colorado School of Mines",2013,"Golden","80401",-105.227148,39.75079,11682,385,88,37,35,43,22,16485,"Colorado",5507,"CO","Golden",126775,22,16485,0,5507,37,11682,39.75079,-105.227148
"221",126818,"Colorado State University-Fort Collins",2013,"Fort Collins","80523-0100",-105.08083,40.574759,17970,1164,92,77,73,81,32,9313,"Colorado",24913,"CO","Fort Collins",126818,32,9313,0,24913,77,17970,40.574759,-105.08083
"222",126872,"College America-Denver",2013,"Denver","80222",-104.94118,39.691571,NA,NA,NA,NA,NA,NA,NA,17211,"Colorado",913,"CO","Denver",126872,NA,17211,NA,913,NA,NA,39.691571,-104.94118
"223",126979,"Denver Seminary",2013,"Littleton","80120",-105.022363,39.600595,NA,NA,NA,NA,NA,NA,NA,NA,"Colorado",636,"CO","Littleton",126979,NA,NA,NA,636,NA,NA,39.600595,-105.022363
"224",127060,"University of Denver",2013,"Denver","80208",-104.964625,39.695954,13735,620,70,77,73,80,13,40707,"Colorado",10520,"CO","Denver",127060,13,40707,0,10520,77,13735,39.695954,-104.964625
"225",127185,"Fort Lewis College",2013,"Durango","81301-3999",-107.867003,37.275428,2560,203,87,88,88,87,39,6923,"Colorado",3631,"CO","Durango",127185,39,6923,0,3631,88,2560,37.275428,-107.867003
"226",127273,"Iliff School of Theology",2013,"Denver","80210-4798",-104.960647,39.677461,NA,NA,NA,NA,NA,NA,NA,NA,"Colorado",255,"CO","Denver",127273,NA,NA,NA,255,NA,NA,39.677461,-104.960647
"227",127556,"Colorado Mesa University",2013,"Grand Junction","81501-3122",-108.540281,39.076354,6459,266,87,82,81,83,39,6725,"Colorado",7716,"CO","Grand Junction",127556,39,6725,0,7716,82,6459,39.076354,-108.540281
"228",127565,"Metropolitan State University of Denver",2013,"Denver","80217-3362",-105.002391,39.742248,5867,63,86,71,71,71,36,5744,"Colorado",17179,"CO","Denver",127565,36,5744,0,17179,71,5867,39.742248,-105.002391
"229",127653,"Naropa University",2013,"Boulder","80302-6697",-105.267073,40.014816,79,NA,NA,80,81,79,60,28790,"Colorado",859,"CO","Boulder",127653,60,28790,0,859,80,79,40.014816,-105.267073
"230",127714,"Nazarene Bible College",2013,"Colorado Springs","80910-3704",-104.751124,38.814124,NA,NA,NA,NA,NA,NA,NA,10800,"Colorado",394,"CO","Colorado Springs",127714,NA,10800,NA,394,NA,NA,38.814124,-104.751124
"231",127741,"University of Northern Colorado",2013,"Greeley","80639",-104.701721,40.403178,7602,259,91,70,65,72,36,6968,"Colorado",11469,"CO","Greeley",127741,36,6968,0,11469,70,7602,40.403178,-104.701721
"232",127918,"Regis University",2013,"Denver","80221-1099",-105.031385,39.78976,3006,154,67,70,68,71,24,32424,"Colorado",8065,"CO","Denver",127918,24,32424,0,8065,70,3006,39.78976,-105.031385
"233",127954,"Montessori Education Center of the Rockies",2013,"Boulder","80301",-105.25311,39.96504,4,NA,NA,100,NA,100,75,NA,"Colorado",73,"CO","Boulder",127954,75,NA,0,73,100,4,39.96504,-105.25311
"234",128106,"Colorado State University-Pueblo",2013,"Pueblo","81001-4901",-104.579846,38.309219,3147,114,89,94,93,96,29,7327,"Colorado",5993,"CO","Pueblo",128106,29,7327,0,5993,94,3147,38.309219,-104.579846
"235",128328,"United States Air Force Academy",2013,"USAFA","80840-5002",-104.889893,39.011115,9634,539,53,15,15,16,78,NA,"Colorado",5088,"CO","USAFA",128328,78,NA,0,5088,15,9634,39.011115,-104.889893
"236",128391,"Western State Colorado University",2013,"Gunnison","81231",-106.91971,38.547421,1514,110,86,93,91,95,33,7343,"Colorado",2023,"CO","Gunnison",128391,33,7343,0,2023,93,1514,38.547421,-106.91971
"237",128498,"Albertus Magnus College",2013,"New Haven","06511-1189",-72.923848,41.332519,689,123,0,68,64,72,28,28378,"Connecticut",1813,"CT","New Haven",128498,28,28378,0,1813,68,689,41.332519,-72.923848
"238",128744,"University of Bridgeport",2013,"Bridgeport","06604-5620",-73.189352,41.165587,5248,494,9,64,59,67,16,29090,"Connecticut",3979,"CT","Bridgeport",128744,16,29090,0,3979,64,5248,41.165587,-73.189352
"239",128771,"Central Connecticut State University",2013,"New Britain","06050",-72.770094,41.690258,5551,1254,3,64,67,62,36,8706,"Connecticut",9989,"CT","New Britain",128771,36,8706,0,9989,64,5551,41.690258,-72.770094
"240",128780,"Charter Oak State College",2013,"New Britain","06053",-72.767972,41.688246,NA,NA,NA,NA,NA,NA,NA,NA,"Connecticut",917,"CT","New Britain",128780,NA,NA,NA,917,NA,NA,41.688246,-72.767972
"241",128902,"Connecticut College",2013,"New London","06320-4196",-72.107321,41.379833,4837,NA,NA,36,33,38,29,46085,"Connecticut",2068,"CT","New London",128902,29,46085,0,2068,36,4837,41.379833,-72.107321
"242",129020,"University of Connecticut",2013,"Storrs","06269",-72.249519,41.808205,27479,3395,27,54,53,54,25,12022,"Connecticut",23517,"CT","Storrs",129020,25,12022,0,23517,54,27479,41.808205,-72.249519
"243",129154,"Goodwin College",2013,"East Hartford","06118",-72.6403,41.74405,NA,NA,NA,NA,NA,NA,NA,19400,"Connecticut",3017,"CT","East Hartford",129154,NA,19400,NA,3017,NA,NA,41.74405,-72.6403
"244",129215,"Eastern Connecticut State University",2013,"Willimantic","06226",-72.218753,41.721673,5112,926,13,65,64,65,29,9376,"Connecticut",4985,"CT","Willimantic",129215,29,9376,0,4985,65,5112,41.721673,-72.218753
"245",129242,"Fairfield University",2013,"Fairfield","06824-5195",-73.25778,41.160732,9254,NA,NA,71,69,73,15,42920,"Connecticut",4694,"CT","Fairfield",129242,15,42920,0,4694,71,9254,41.160732,-73.25778
"246",129428,"Rensselaer Hartford Graduate Center Inc",2013,"Hartford","06120",-72.673916,41.773462,NA,NA,NA,NA,NA,NA,NA,NA,"Connecticut",140,"CT","Hartford",129428,NA,NA,NA,140,NA,NA,41.773462,-72.673916
"247",129491,"Hartford Seminary",2013,"Hartford","06105-2260",-72.707766,41.769861,NA,NA,NA,NA,NA,NA,NA,NA,"Connecticut",73,"CT","Hartford",129491,NA,NA,NA,73,NA,NA,41.769861,-72.707766
"248",129525,"University of Hartford",2013,"West Hartford","06117-1599",-72.714965,41.796485,15127,940,15,62,63,61,14,33358,"Connecticut",6581,"CT","West Hartford",129525,14,33358,0,6581,62,15127,41.796485,-72.714965
"249",129534,"Holy Apostles College and Seminary",2013,"Cromwell","06416-2005",-72.647853,41.60682,NA,NA,NA,NA,NA,NA,NA,10470,"Connecticut",333,"CT","Cromwell",129534,NA,10470,NA,333,NA,NA,41.60682,-72.647853
"250",129686,"Lyme Academy College of Fine Arts",2013,"Old Lyme","06371",-72.329397,41.322826,82,NA,NA,85,67,100,31,29616,"Connecticut",64,"CT","Old Lyme",129686,31,29616,0,64,85,82,41.322826,-72.329397
"251",129774,"Mitchell College",2013,"New London","06320",-72.095337,41.328075,1162,NA,NA,58,62,53,26,29458,"Connecticut",813,"CT","New London",129774,26,29458,0,813,58,1162,41.328075,-72.095337
"252",129941,"University of New Haven",2013,"West Haven","06516",-72.961472,41.291314,10169,1052,24,74,97,57,15,33740,"Connecticut",6205,"CT","West Haven",129941,15,33740,0,6205,74,10169,41.291314,-72.961472
"253",130226,"Quinnipiac University",2013,"Hamden","06518",-72.895542,41.419527,20699,1615,29,67,64,69,13,39330,"Connecticut",8553,"CT","Hamden",130226,13,39330,0,8553,67,20699,41.419527,-72.895542
"254",130253,"Sacred Heart University",2013,"Fairfield","06825-1000",-73.24461,41.221548,7781,NA,NA,76,75,77,15,35050,"Connecticut",5945,"CT","Fairfield",130253,15,35050,0,5945,76,7781,41.221548,-73.24461
"255",130314,"University of Saint Joseph",2013,"West Hartford","06117",-72.730489,41.783028,860,145,17,86,NA,86,21,33417,"Connecticut",1943,"CT","West Hartford",130314,21,33417,0,1943,86,860,41.783028,-72.730489
"256",130448,"St Vincent's College",2013,"Bridgeport","06606-4201",-73.201106,41.201198,60,NA,NA,72,80,69,16,19650,"Connecticut",530,"CT","Bridgeport",130448,16,19650,0,530,72,60,41.201198,-73.201106
"257",130493,"Southern Connecticut State University",2013,"New Haven","06515-1355",-72.948806,41.331852,4870,1345,8,75,70,78,37,9020,"Connecticut",8708,"CT","New Haven",130493,37,9020,0,8708,75,4870,41.331852,-72.948806
"258",130590,"Trinity College",2013,"Hartford","06106-3100",-72.688684,41.746746,7652,288,30,32,33,31,25,47510,"Connecticut",2356,"CT","Hartford",130590,25,47510,0,2356,32,7652,41.746746,-72.688684
"259",130624,"United States Coast Guard Academy",2013,"New London","06320-4195",-72.098839,41.370261,1992,194,60,16,14,28,71,NA,"Connecticut",1102,"CT","New London",130624,71,NA,0,1102,16,1992,41.370261,-72.098839
"260",130697,"Wesleyan University",2013,"Middletown","06459",-72.656755,41.55678,10046,602,41,21,23,20,36,47244,"Connecticut",3310,"CT","Middletown",130697,36,47244,0,3310,21,10046,41.55678,-72.656755
"261",130776,"Western Connecticut State University",2013,"Danbury","06810-6826",-73.444264,41.400365,3613,NA,NA,65,62,68,33,8893,"Connecticut",5389,"CT","Danbury",130776,33,8893,0,5389,65,3613,41.400365,-73.444264
"262",130785,"Yale-New Haven Hospital Dietetic Internship",2013,"New Haven","06510",-72.935579,41.304214,NA,NA,NA,NA,NA,NA,NA,NA,"Connecticut",12,"CT","New Haven",130785,NA,NA,NA,12,NA,NA,41.304214,-72.935579
"263",130794,"Yale University",2013,"New Haven","06520",-72.926688,41.311158,28977,1141,35,7,8,6,66,44000,"Connecticut",13550,"CT","New Haven",130794,66,44000,1,13550,7,28977,41.311158,-72.926688
"264",130934,"Delaware State University",2013,"Dover","19901",-75.54053,39.187173,8884,989,12,42,38,44,27,7336,"Delaware",4087,"DE","Dover",130934,27,7336,0,4087,42,8884,39.187173,-75.54053
"265",130943,"University of Delaware",2013,"Newark","19716",-75.7536,39.679791,25458,4167,27,65,61,68,26,12112,"Delaware",20927,"DE","Newark",130943,26,12112,0,20927,65,25458,39.679791,-75.7536
"266",130989,"Goldey-Beacom College",2013,"Wilmington","19808",-75.694018,39.742464,562,NA,NA,52,53,52,31,22140,"Delaware",1240,"DE","Wilmington",130989,31,22140,0,1240,52,562,39.742464,-75.694018
"267",131098,"Wesley College",2013,"Dover","19901-3875",-75.527377,39.16325,2933,496,9,62,63,62,30,23590,"Delaware",1391,"DE","Dover",131098,30,23590,0,1391,62,2933,39.16325,-75.527377
"268",131113,"Wilmington University",2013,"New Castle","19720",-75.586998,39.682299,NA,NA,NA,NA,NA,NA,NA,9950,"Delaware",10072,"DE","New Castle",131113,NA,9950,NA,10072,NA,NA,39.682299,-75.586998
"269",131159,"American University",2013,"Washington","20016-8001",-77.090106,38.937802,17545,1084,35,43,38,46,21,40649,"District of Columbia",11639,NA,"Washington",131159,21,40649,0,11639,43,17545,38.937802,-77.090106
"270",131283,"Catholic University of America",2013,"Washington","20064",-76.998961,38.935796,6298,734,29,60,62,58,22,38526,"District of Columbia",5954,NA,"Washington",131283,22,38526,0,5954,60,6298,38.935796,-76.998961
"271",131308,"Corcoran College of Art and Design",2013,"Washington","20006-4804",-77.039812,38.895757,472,NA,NA,27,22,29,29,31130,"District of Columbia",497,NA,"Washington",131308,29,31130,0,497,27,472,38.895757,-77.039812
"272",131399,"University of the District of Columbia",2013,"Washington","20008",-77.066247,38.943819,NA,NA,NA,NA,NA,NA,NA,5138,"District of Columbia",3675,NA,"Washington",131399,NA,5138,NA,3675,NA,NA,38.943819,-77.066247
"273",131405,"Pontifical Faculty of the Immaculate Conception at the Dominican House of Studies",2013,"Washington","20017-1585",-76.998806,38.931427,NA,NA,NA,NA,NA,NA,NA,NA,"District of Columbia",109,NA,"Washington",131405,NA,NA,NA,109,NA,NA,38.931427,-76.998806
"274",131450,"Gallaudet University",2013,"Washington","20002-3695",-76.993675,38.907371,520,24,95,66,60,71,59,13800,"District of Columbia",1504,NA,"Washington",131450,59,13800,0,1504,66,520,38.907371,-76.993675
"275",131469,"George Washington University",2013,"Washington","20052",-77.047871,38.89865,21756,1785,37,33,36,31,33,47343,"District of Columbia",21733,NA,"Washington",131469,33,47343,0,21733,33,21756,38.89865,-77.047871
"276",131496,"Georgetown University",2013,"Washington","20057-0001",-77.073463,38.908809,20115,1367,35,17,19,16,46,44805,"District of Columbia",15374,NA,"Washington",131496,46,44805,0,15374,17,20115,38.908809,-77.073463
"277",131520,"Howard University",2013,"Washington","20059-0001",-77.019478,38.920739,11687,1061,48,49,49,50,24,22683,"District of Columbia",9278,NA,"Washington",131520,24,22683,0,9278,49,11687,38.920739,-77.019478
"278",131876,"Trinity Washington University",2013,"Washington","20017-1094",-77.004261,38.927398,1493,NA,NA,52,26,53,34,21630,"District of Columbia",1980,NA,"Washington",131876,34,21630,0,1980,52,1493,38.927398,-77.004261
"279",131973,"Wesley Theological Seminary",2013,"Washington","20016-5690",-77.08996,38.939606,NA,NA,NA,NA,NA,NA,NA,NA,"District of Columbia",556,NA,"Washington",131973,NA,NA,NA,556,NA,NA,38.939606,-77.08996
"280",132408,"The Baptist College of Florida",2013,"Graceville","32440",-85.519033,30.956401,148,8,79,43,38,48,68,9700,"Florida",437,"FL","Graceville",132408,68,9700,0,437,43,148,30.956401,-85.519033
"281",132471,"Barry University",2013,"Miami","33161-6695",-80.196136,25.878865,7845,442,40,47,46,48,16,28160,"Florida",8563,"FL","Miami",132471,16,28160,0,8563,47,7845,25.878865,-80.196136
"282",132602,"Bethune-Cookman University",2013,"Daytona Beach","32114-3099",-81.031429,29.210193,7429,600,64,67,64,68,21,14410,"Florida",3733,"FL","Daytona Beach",132602,21,14410,0,3733,67,7429,29.210193,-81.031429
"283",132657,"Lynn University",2013,"Boca Raton","33431-5598",-80.123851,26.382777,2697,318,32,78,76,79,21,33600,"Florida",2151,"FL","Boca Raton",132657,21,33600,0,2151,78,2697,26.382777,-80.123851
"284",132693,"Eastern Florida State College",2013,"Cocoa","32922",-80.75813,28.384791,NA,NA,NA,NA,NA,NA,NA,2496,"Florida",12053,"FL","Cocoa",132693,NA,2496,NA,12053,NA,NA,28.384791,-80.75813
"285",132709,"Broward College",2013,"Fort Lauderdale","33301",-80.23541,26.07972,NA,NA,NA,NA,NA,NA,NA,2542,"Florida",30322,"FL","Fort Lauderdale",132709,NA,2542,NA,30322,NA,NA,26.07972,-80.23541
"286",132842,"Carlos Albizu University-Miami",2013,"Miami","33172-2209",-80.355002,25.795162,58,NA,NA,36,43,34,43,12048,"Florida",887,"FL","Miami",132842,43,12048,0,887,36,58,25.795162,-80.355002
"287",132851,"College of Central Florida",2013,"Ocala","34474",-82.175692,29.166079,NA,NA,NA,NA,NA,NA,NA,2522,"Florida",6103,"FL","Ocala",132851,NA,2522,NA,6103,NA,NA,29.166079,-82.175692
"288",132879,"Johnson University Florida",2013,"Kissimmee","34744",-81.362512,28.301869,477,54,46,42,49,35,40,12470,"Florida",370,"FL","Kissimmee",132879,40,12470,0,370,42,477,28.301869,-81.362512
"289",132903,"University of Central Florida",2013,"Orlando","32816",-81.198805,28.60106,31820,3899,36,49,50,48,37,6317,"Florida",51734,"FL","Orlando",132903,37,6317,0,51734,49,31820,28.60106,-81.198805
"290",133021,"Chipola College",2013,"Marianna","32446-2053",-85.231946,30.790647,NA,NA,NA,NA,NA,NA,NA,3120,"Florida",1609,"FL","Marianna",133021,NA,3120,NA,1609,NA,NA,30.790647,-85.231946
"291",133085,"Clearwater Christian College",2013,"Clearwater","33759-4595",-82.697305,27.963556,468,66,67,70,71,69,38,17125,"Florida",505,"FL","Clearwater",133085,38,17125,0,505,70,468,27.963556,-82.697305
"292",133386,"Daytona State College",2013,"Daytona Beach","32114",-81.051266,29.202286,NA,NA,NA,NA,NA,NA,NA,3321,"Florida",11389,"FL","Daytona Beach",133386,NA,3321,NA,11389,NA,NA,29.202286,-81.051266
"293",133492,"Eckerd College",2013,"Saint Petersburg","33711-4700",-82.685992,27.718996,3912,381,49,71,66,74,19,37362,"Florida",2437,"FL","Saint Petersburg",133492,19,37362,0,2437,71,3912,27.718996,-82.685992
"294",133508,"Edison State College",2013,"Fort Myers","33919-0000",-81.887375,26.554737,NA,NA,NA,NA,NA,NA,NA,3281,"Florida",10649,"FL","Fort Myers",133508,NA,3281,NA,10649,NA,NA,26.554737,-81.887375
"295",133526,"Edward Waters College",2013,"Jacksonville","32209",-81.684817,30.34513,1907,50,69,27,30,25,40,11525,"Florida",897,"FL","Jacksonville",133526,40,11525,0,897,27,1907,30.34513,-81.684817
"296",133553,"Embry-Riddle Aeronautical University-Daytona Beach",2013,"Daytona Beach","32114-3900",-81.0495,29.189244,4074,717,49,74,73,77,31,31334,"Florida",4932,"FL","Daytona Beach",133553,31,31334,0,4932,74,4074,29.189244,-81.0495
"297",133650,"Florida Agricultural and Mechanical University",2013,"Tallahassee","32307",-84.285664,30.428599,5029,306,73,45,39,49,50,5785,"Florida",11729,"FL","Tallahassee",133650,50,5785,0,11729,45,5029,30.428599,-84.285664
"298",133669,"Florida Atlantic University",2013,"Boca Raton","33431-0991",-80.102293,26.372536,24889,2158,38,48,46,49,28,4790,"Florida",24653,"FL","Boca Raton",133669,28,4790,0,24653,48,24889,26.372536,-80.102293
"299",133702,"Florida State College at Jacksonville",2013,"Jacksonville","32202",-81.659901,30.334918,NA,NA,NA,NA,NA,NA,NA,2830,"Florida",21810,"FL","Jacksonville",133702,NA,2830,NA,21810,NA,NA,30.334918,-81.659901
"300",133711,"Flagler College-St Augustine",2013,"Saint Augustine","32084",-81.315256,29.89335,5396,507,51,50,53,47,26,16180,"Florida",2644,"FL","Saint Augustine",133711,26,16180,0,2644,50,5396,29.89335,-81.315256
"301",133809,"Florida College",2013,"Temple Terrace","33617-5527",-82.383446,28.034911,383,105,69,59,62,56,86,14490,"Florida",502,"FL","Temple Terrace",133809,86,14490,0,502,59,383,28.034911,-82.383446
"302",133872,"Adventist University of Health Sciences",2013,"Orlando","32803",-81.367687,28.576142,2110,40,58,13,15,13,16,11830,"Florida",1819,"FL","Orlando",133872,16,11830,1,1819,13,2110,28.576142,-81.367687
"303",133881,"Florida Institute of Technology",2013,"Melbourne","32901-6975",-80.624628,28.064503,7820,411,38,60,61,60,17,36020,"Florida",4548,"FL","Melbourne",133881,17,36020,0,4548,60,7820,28.064503,-80.624628
"304",133951,"Florida International University",2013,"Miami","33199",-80.377591,25.757111,16549,2106,30,43,44,42,40,6496,"Florida",42357,"FL","Miami",133951,40,6496,0,42357,43,16549,25.757111,-80.377591
"305",133979,"Florida Memorial University",2013,"Miami Gardens","33054-6199",-80.270672,25.917854,4960,NA,NA,42,35,46,20,14776,"Florida",1580,"FL","Miami Gardens",133979,20,14776,0,1580,42,4960,25.917854,-80.270672
"306",134079,"Florida Southern College",2013,"Lakeland","33801-5698",-81.945791,28.031507,4963,518,60,50,50,50,26,28580,"Florida",2460,"FL","Lakeland",134079,26,28580,0,2460,50,4963,28.031507,-81.945791
"307",134097,"Florida State University",2013,"Tallahassee","32306-1037",-84.294801,30.4421,29579,2652,56,57,56,57,36,6507,"Florida",39413,"FL","Tallahassee",134097,36,6507,0,39413,57,29579,30.4421,-84.294801
"308",134130,"University of Florida",2013,"Gainesville","32611",-82.361195,29.638248,27107,4000,37,47,45,48,50,6263,"Florida",47557,"FL","Gainesville",134130,50,6263,0,47557,47,27107,29.638248,-82.361195
"309",134343,"Gulf Coast State College",2013,"Panama City","32401",-85.727249,30.186104,NA,NA,NA,NA,NA,NA,NA,2765,"Florida",4474,"FL","Panama City",134343,NA,2765,NA,4474,NA,NA,30.186104,-85.727249
"310",134510,"Hobe Sound Bible College",2013,"Hobe Sound","33455-1065",-80.132413,27.066473,NA,NA,NA,NA,NA,NA,NA,5700,"Florida",128,"FL","Hobe Sound",134510,NA,5700,NA,128,NA,NA,27.066473,-80.132413
"311",134608,"Indian River State College",2013,"Fort Pierce","34981-5596",-80.35785,27.423121,NA,NA,NA,NA,NA,NA,NA,2764,"Florida",12211,"FL","Fort Pierce",134608,NA,2764,NA,12211,NA,NA,27.423121,-80.35785
"312",134945,"Jacksonville University",2013,"Jacksonville","32211-3394",-81.60706,30.350349,3498,316,41,47,52,44,31,29900,"Florida",3362,"FL","Jacksonville",134945,31,29900,0,3362,47,3498,30.350349,-81.60706
"313",135063,"Jones College-Jacksonville",2013,"Jacksonville","32211",-81.610068,30.328002,NA,NA,NA,NA,NA,NA,NA,7410,"Florida",345,"FL","Jacksonville",135063,NA,7410,NA,345,NA,NA,30.328002,-81.610068
"314",135081,"Keiser University-Ft Lauderdale",2013,"Fort Lauderdale","33309",-80.163959,26.185869,4620,NA,NA,93,97,92,64,16284,"Florida",18270,"FL","Fort Lauderdale",135081,64,16284,0,18270,93,4620,26.185869,-80.163959
"315",135160,"Florida Gateway College",2013,"Lake City","32025-2007",-82.569667,30.174307,NA,NA,NA,NA,NA,NA,NA,3100,"Florida",2179,"FL","Lake City",135160,NA,3100,NA,2179,NA,NA,30.174307,-82.569667
"316",135188,"Lake-Sumter State College",2013,"Leesburg","34788-8751",-81.797731,28.830237,NA,NA,NA,NA,NA,NA,NA,3172,"Florida",2983,"FL","Leesburg",135188,NA,3172,NA,2983,NA,NA,28.830237,-81.797731
"317",135364,"Luther Rice University & Seminary",2013,"Lithonia","30038-9869",-84.123648,33.697984,NA,NA,NA,NA,NA,NA,NA,5832,"Georgia",875,"GA","Lithonia",135364,NA,5832,NA,875,NA,NA,33.697984,-84.123648
"318",135391,"State College of Florida-Manatee-Sarasota",2013,"Bradenton","34207",-82.591739,27.436066,NA,NA,NA,NA,NA,NA,NA,3074,"Florida",8012,"FL","Bradenton",135391,NA,3074,NA,8012,NA,NA,27.436066,-82.591739
"319",135610,"Trinity International University-Florida",2013,"Davie","33324",-80.257156,26.099656,NA,NA,NA,NA,NA,NA,NA,NA,"Florida",241,"FL","Davie",135610,NA,NA,NA,241,NA,NA,26.099656,-80.257156
"320",135717,"Miami Dade College",2013,"Miami","33132-2204",-80.190856,25.777717,NA,NA,NA,NA,NA,NA,NA,3426,"Florida",53787,"FL","Miami",135717,NA,3426,NA,53787,NA,NA,25.777717,-80.190856
"321",135726,"University of Miami",2013,"Coral Gables","33146",-80.27645,25.720406,28907,1049,41,40,41,40,18,42852,"Florida",16015,"FL","Coral Gables",135726,18,42852,0,16015,40,28907,25.720406,-80.27645
"322",135939,"Remington College-Tampa Campus",2013,"Tampa","33619",-82.385976,27.983466,67,NA,NA,81,86,78,76,15995,"Florida",320,"FL","Tampa",135939,76,15995,0,320,81,67,27.983466,-82.385976
"323",136172,"University of North Florida",2013,"Jacksonville","32224-7699",-81.507853,30.270917,10635,848,48,53,55,52,28,6353,"Florida",13989,"FL","Jacksonville",136172,28,6353,0,13989,53,10635,30.270917,-81.507853
"324",136206,"Northwood University-Florida",2013,"West Palm Beach","33409-2911",-80.104138,26.714688,880,97,53,51,54,47,28,22130,"Florida",614,"FL","West Palm Beach",136206,28,22130,0,614,51,880,26.714688,-80.104138
"325",136215,"Nova Southeastern University",2013,"Fort Lauderdale","33314-7796",-80.24248,26.079337,4328,492,50,57,54,59,25,25430,"Florida",30644,"FL","Fort Lauderdale",136215,25,25430,0,30644,57,4328,26.079337,-80.24248
"326",136233,"Northwest Florida State College",2013,"Niceville","32578-1295",-86.475467,30.537148,NA,NA,NA,NA,NA,NA,NA,3064,"Florida",5197,"FL","Niceville",136233,NA,3064,NA,5197,NA,NA,30.537148,-86.475467
"327",136330,"Palm Beach Atlantic University",2013,"West Palm Beach","33401",-80.049758,26.704629,1618,435,64,84,81,85,43,25532,"Florida",3175,"FL","West Palm Beach",136330,43,25532,0,3175,84,1618,26.704629,-80.049758
"328",136358,"Palm Beach State College",2013,"Lake Worth","33461-4796",-80.087104,26.613214,NA,NA,NA,NA,NA,NA,NA,2378,"Florida",19938,"FL","Lake Worth",136358,NA,2378,NA,19938,NA,NA,26.613214,-80.087104
"329",136473,"Pensacola State College",2013,"Pensacola","32504-8998",-87.200622,30.480779,NA,NA,NA,NA,NA,NA,NA,2704,"Florida",8740,"FL","Pensacola",136473,NA,2704,NA,8740,NA,NA,30.480779,-87.200622
"330",136516,"Polk State College",2013,"Winter Haven","33881-4299",-81.712932,28.030775,NA,NA,NA,NA,NA,NA,NA,3366,"Florida",7935,"FL","Winter Haven",136516,NA,3366,NA,7935,NA,NA,28.030775,-81.712932
"331",136701,"Saint Vincent de Paul Regional Seminary",2013,"Boynton Beach","33436-4899",-80.125707,26.51582,NA,NA,NA,NA,NA,NA,NA,NA,"Florida",121,"FL","Boynton Beach",136701,NA,NA,NA,121,NA,NA,26.51582,-80.125707
"332",136774,"Ringling College of Art and Design",2013,"Sarasota","34234-5895",-82.548598,27.35963,1225,NA,NA,73,71,75,29,38540,"Florida",1273,"FL","Sarasota",136774,29,38540,0,1273,73,1225,27.35963,-82.548598
"333",136950,"Rollins College",2013,"Winter Park","32789-4499",-81.348716,28.591992,4729,323,53,59,59,59,17,41460,"Florida",3085,"FL","Winter Park",136950,17,41460,0,3085,59,4729,28.591992,-81.348716
"334",137032,"Saint Leo University",2013,"Saint Leo","33574-6665",-82.257287,28.336776,3178,NA,NA,77,72,80,26,19920,"Florida",14572,"FL","Saint Leo",137032,26,19920,0,14572,77,3178,28.336776,-82.257287
"335",137078,"St Petersburg College",2013,"Clearwater","33760-2822",-82.717331,27.90242,NA,NA,NA,NA,NA,NA,NA,3232,"Florida",21467,"FL","Clearwater",137078,NA,3232,NA,21467,NA,NA,27.90242,-82.717331
"336",137096,"Santa Fe College",2013,"Gainesville","32606-6210",-82.433958,29.680698,NA,NA,NA,NA,NA,NA,NA,2532,"Florida",11819,"FL","Gainesville",137096,NA,2532,NA,11819,NA,NA,29.680698,-82.433958
"337",137209,"Seminole State College of Florida",2013,"Sanford","32773-6199",-81.305606,28.74475,NA,NA,NA,NA,NA,NA,NA,3131,"Florida",15021,"FL","Sanford",137209,NA,3131,NA,15021,NA,NA,28.74475,-81.305606
"338",137272,"Saint John Vianney College Seminary",2013,"Miami","33165-3244",-80.337411,25.742579,16,NA,NA,100,100,100,75,21100,"Florida",105,"FL","Miami",137272,75,21100,0,105,100,16,25.742579,-80.337411
"339",137281,"Saint Johns River State College",2013,"Palatka","32177",-81.681137,29.647195,NA,NA,NA,NA,NA,NA,NA,2998,"Florida",4698,"FL","Palatka",137281,NA,2998,NA,4698,NA,NA,29.647195,-81.681137
"340",137315,"South Florida State College",2013,"Avon Park","33825-9356",-81.508387,27.569553,NA,NA,NA,NA,NA,NA,NA,3175,"Florida",1902,"FL","Avon Park",137315,NA,3175,NA,1902,NA,NA,27.569553,-81.508387
"341",137351,"University of South Florida-Main Campus",2013,"Tampa","33620-9951",-82.415876,28.056647,28512,2184,44,45,44,46,30,6410,"Florida",36177,"FL","Tampa",137351,30,6410,0,36177,45,28512,28.056647,-82.415876
"342",137476,"St Thomas University",2013,"Miami Gardens","33054-6459",-80.256265,25.920915,727,118,42,46,49,44,63,26370,"Florida",2975,"FL","Miami Gardens",137476,63,26370,0,2975,46,727,25.920915,-80.256265
"343",137546,"Stetson University",2013,"DeLand","32723",-81.301604,29.036295,10509,427,36,59,55,62,14,38330,"Florida",4147,"FL","DeLand",137546,14,38330,0,4147,59,10509,29.036295,-81.301604
"344",137564,"Southeastern University",2013,"Lakeland","33801-6034",-81.918997,28.031864,2124,511,49,59,57,62,67,19986,"Florida",2407,"FL","Lakeland",137564,67,19986,0,2407,59,2124,28.031864,-81.918997
"345",137777,"Talmudic College of Florida",2013,"Miami Beach","33140-3854",-80.141334,25.7949,NA,NA,NA,NA,NA,NA,NA,12500,"Florida",51,"FL","Miami Beach",137777,NA,12500,NA,51,NA,NA,25.7949,-80.141334
"346",137847,"The University of Tampa",2013,"Tampa","33606-1490",-82.465582,27.947225,15345,1186,47,52,54,51,20,25772,"Florida",7216,"FL","Tampa",137847,20,25772,0,7216,52,15345,27.947225,-82.465582
"347",137953,"Trinity Baptist College",2013,"Jacksonville","32221",-81.705655,30.323755,196,36,68,48,61,36,79,9840,"Florida",235,"FL","Jacksonville",137953,79,9840,0,235,48,196,30.323755,-81.705655
"348",137962,"Trinity College of Florida",2013,"Trinity","34655-4401",-82.677065,28.194222,NA,NA,NA,NA,NA,NA,NA,13320,"Florida",167,"FL","Trinity",137962,NA,13320,NA,167,NA,NA,28.194222,-82.677065
"349",138187,"Valencia College",2013,"Orlando","32801",-81.464168,28.522646,NA,NA,NA,NA,NA,NA,NA,2378,"Florida",30467,"FL","Orlando",138187,NA,2378,NA,30467,NA,NA,28.522646,-81.464168
"350",138275,"Warner University",2013,"Lake Wales","33859-8797",-81.599972,27.825751,1264,70,53,34,30,42,41,18430,"Florida",1035,"FL","Lake Wales",138275,41,18430,0,1035,34,1264,27.825751,-81.599972
"351",138293,"Webber International University",2013,"Babson Park","33827-0096",-81.532325,27.838798,944,131,64,64,62,71,34,21050,"Florida",692,"FL","Babson Park",138293,34,21050,0,692,64,944,27.838798,-81.532325
"352",138354,"The University of West Florida",2013,"Pensacola","32514-5750",-87.218125,30.542855,12347,786,78,48,49,48,22,6357,"Florida",10240,"FL","Pensacola",138354,22,6357,0,10240,48,12347,30.542855,-87.218125
"353",138558,"Abraham Baldwin Agricultural College",2013,"Tifton","31793-2601",-83.528281,31.481889,1567,667,37,71,70,72,75,3848,"Georgia",2564,"GA","Tifton",138558,75,3848,0,2564,71,1567,31.481889,-83.528281
"354",138600,"Agnes Scott College",2013,"Decatur","30030-3797",-84.29563,33.769996,1340,NA,NA,67,NA,67,28,34788,"Georgia",892,"GA","Decatur",138600,28,34788,0,892,67,1340,33.769996,-84.29563
"355",138716,"Albany State University",2013,"Albany","31705",-84.14306,31.571395,8250,354,56,20,19,21,30,6024,"Georgia",3662,"GA","Albany",138716,30,6024,0,3662,20,8250,31.571395,-84.14306
"356",138789,"Armstrong Atlantic State University",2013,"Savannah","31419-1997",-81.160409,31.978109,3118,852,36,70,74,68,46,5085,"Georgia",6458,"GA","Savannah",138789,46,5085,0,6458,70,3118,31.978109,-81.160409
"357",138868,"Point University",2013,"West Point","31833",-85.184285,32.879467,934,120,63,54,49,59,47,17400,"Georgia",1376,"GA","West Point",138868,47,17400,0,1376,54,934,32.879467,-85.184285
"358",138901,"Atlanta Metropolitan State College",2013,"Atlanta","30310-4498",-84.404659,33.70893,NA,NA,NA,NA,NA,NA,NA,3006,"Georgia",2437,"GA","Atlanta",138901,NA,3006,NA,2437,NA,NA,33.70893,-84.404659
"359",138947,"Clark Atlanta University",2013,"Atlanta","30314-4391",-84.412818,33.748772,5873,460,50,57,51,59,23,21100,"Georgia",3201,"GA","Atlanta",138947,23,21100,0,3201,57,5873,33.748772,-84.412818
"360",139144,"Berry College",2013,"Mount Berry","30149",-85.189077,34.289254,3901,317,53,60,61,60,29,29090,"Georgia",2102,"GA","Mount Berry",139144,29,29090,0,2102,60,3901,34.289254,-85.189077
"361",139153,"Beulah Heights University",2013,"Atlanta","30316",-84.358086,33.737022,NA,NA,NA,NA,NA,NA,NA,8940,"Georgia",568,"GA","Atlanta",139153,NA,8940,NA,568,NA,NA,33.737022,-84.358086
"362",139199,"Brenau University",2013,"Gainesville","30501-3668",-83.821513,34.303117,2160,172,44,78,54,79,12,23350,"Georgia",2354,"GA","Gainesville",139199,12,23350,0,2354,78,2160,34.303117,-83.821513
"363",139205,"Brewton-Parker College",2013,"Mount Vernon","30445",-82.586136,32.185718,475,99,51,51,53,49,60,13560,"Georgia",513,"GA","Mount Vernon",139205,60,13560,0,513,51,475,32.185718,-82.586136
"364",139250,"College of Coastal Georgia",2013,"Brunswick","31520-3644",-81.492667,31.136384,1276,409,36,82,84,81,47,4388,"Georgia",2447,"GA","Brunswick",139250,47,4388,0,2447,82,1276,31.136384,-81.492667
"365",139287,"Carver Bible College",2013,"Atlanta","30331",-84.515091,33.7236,NA,NA,NA,NA,NA,NA,NA,8325,"Georgia",79,"GA","Atlanta",139287,NA,8325,NA,79,NA,NA,33.7236,-84.515091
"366",139311,"Clayton  State University",2013,"Morrow","30260-0285",-84.328174,33.594079,2046,389,44,48,54,45,47,5153,"Georgia",5844,"GA","Morrow",139311,47,5153,0,5844,48,2046,33.594079,-84.328174
"367",139348,"Columbia Theological Seminary",2013,"Decatur","30030-4118",-84.282978,33.764108,NA,NA,NA,NA,NA,NA,NA,NA,"Georgia",288,"GA","Decatur",139348,NA,NA,NA,288,NA,NA,33.764108,-84.282978
"368",139366,"Columbus State University",2013,"Columbus","31907-5645",-84.940796,32.501556,3170,732,44,55,58,54,54,5514,"Georgia",6876,"GA","Columbus",139366,54,5514,0,6876,55,3170,32.501556,-84.940796
"369",139393,"Covenant College",2013,"Lookout Mountain","30750-4164",-85.37496,34.963327,1129,193,58,57,51,62,42,29100,"Georgia",1102,"GA","Lookout Mountain",139393,42,29100,0,1102,57,1129,34.963327,-85.37496
"370",139463,"Dalton State College",2013,"Dalton","30720-3797",-85.00289,34.77496,NA,NA,NA,NA,NA,NA,NA,3910,"Georgia",3846,"GA","Dalton",139463,NA,3910,NA,3846,NA,NA,34.77496,-85.00289
"371",139621,"East Georgia State College",2013,"Swainsboro","30401",-82.308486,32.59577,NA,NA,NA,NA,NA,NA,NA,4206,"Georgia",2345,"GA","Swainsboro",139621,NA,4206,NA,2345,NA,NA,32.59577,-82.308486
"372",139630,"Emmanuel College",2013,"Franklin Springs","30639",-83.146825,34.282617,876,136,11,48,49,47,37,16800,"Georgia",748,"GA","Franklin Springs",139630,37,16800,0,748,48,876,34.282617,-83.146825
"373",139658,"Emory University",2013,"Atlanta","30322",-84.325782,33.798836,17475,1034,45,26,26,27,30,44008,"Georgia",15995,"GA","Atlanta",139658,30,44008,0,15995,26,17475,33.798836,-84.325782
"374",139719,"Fort Valley State University",2013,"Fort Valley","31030-4313",-83.895548,32.538163,4076,396,50,33,34,32,44,6438,"Georgia",3200,"GA","Fort Valley",139719,44,6438,0,3200,33,4076,32.538163,-83.895548
"375",139755,"Georgia Institute of Technology-Main Campus",2013,"Atlanta","30332-0530",-84.396019,33.773732,14645,2684,53,55,52,60,38,10650,"Georgia",22188,"GA","Atlanta",139755,38,10650,0,22188,55,14645,33.773732,-84.396019
"376",139764,"Georgia Southwestern State University",2013,"Americus","31709-4693",-84.217755,32.058198,1245,256,31,68,72,66,41,5035,"Georgia",2689,"GA","Americus",139764,41,5035,0,2689,68,1245,32.058198,-84.217755
"377",139861,"Georgia College and State University",2013,"Milledgeville","31061",-83.231962,33.082787,4051,911,59,68,69,68,51,8790,"Georgia",6277,"GA","Milledgeville",139861,51,8790,0,6277,68,4051,33.082787,-83.231962
"378",139931,"Georgia Southern University",2013,"Statesboro","30460-8126",-81.782201,32.427756,10525,2696,52,52,48,56,65,6071,"Georgia",18824,"GA","Statesboro",139931,65,6071,0,18824,52,10525,32.427756,-81.782201
"379",139940,"Georgia State University",2013,"Atlanta","30303-3083",-84.38667,33.7527,13890,2961,45,55,57,53,45,8368,"Georgia",30943,"GA","Atlanta",139940,45,8368,0,30943,55,13890,33.7527,-84.38667
"380",139959,"University of Georgia",2013,"Athens","30602",-83.374049,33.956428,18458,4310,60,56,53,58,48,10262,"Georgia",34717,"GA","Athens",139959,48,10262,0,34717,56,18458,33.956428,-83.374049
"381",139968,"Gordon State College",2013,"Barnesville","30204",-84.152548,33.045208,2981,847,52,45,48,44,79,3408,"Georgia",3336,"GA","Barnesville",139968,79,3408,0,3336,45,2981,33.045208,-84.152548
"382",140146,"Interdenominational Theological Center",2013,"Atlanta","30314-4143",-84.410337,33.754904,NA,NA,NA,NA,NA,NA,NA,NA,"Georgia",204,"GA","Atlanta",140146,NA,NA,NA,204,NA,NA,33.754904,-84.410337
"383",140164,"Kennesaw State University",2013,"Kennesaw","30144-5591",-84.58083,34.03629,9471,2140,45,57,56,57,58,5818,"Georgia",21215,"GA","Kennesaw",140164,58,5818,0,21215,57,9471,34.03629,-84.58083
"384",140234,"LaGrange College",2013,"Lagrange","30240-2999",-85.041394,33.039713,1648,176,56,58,62,52,28,25690,"Georgia",965,"GA","Lagrange",140234,28,25690,0,965,58,1648,33.039713,-85.041394
"385",140252,"Life University",2013,"Marietta","30060",-84.514156,33.932104,809,NA,NA,75,83,68,26,7947,"Georgia",2584,"GA","Marietta",140252,26,7947,0,2584,75,809,33.932104,-84.514156
"386",140447,"Mercer University",2013,"Macon","31207",-83.651042,32.829731,3864,446,38,69,74,66,27,33120,"Georgia",8582,"GA","Macon",140447,27,33120,0,8582,69,3864,32.829731,-83.651042
"387",140553,"Morehouse College",2013,"Atlanta","30314",-84.415156,33.74793,2690,339,52,67,67,NA,27,25468,"Georgia",2379,"GA","Atlanta",140553,27,25468,0,2379,67,2690,33.74793,-84.415156
"388",140562,"Morehouse School of Medicine",2013,"Atlanta","30310-1495",-84.411958,33.742549,NA,NA,NA,NA,NA,NA,NA,NA,"Georgia",333,"GA","Atlanta",140562,NA,NA,NA,333,NA,NA,33.742549,-84.411958
"389",140696,"Oglethorpe University",2013,"Atlanta","30319-2797",-84.334756,33.875939,4403,213,52,56,56,56,11,31280,"Georgia",1049,"GA","Atlanta",140696,11,31280,0,1049,56,4403,33.875939,-84.334756
"390",140720,"Paine College",2013,"Augusta","30901-3182",-81.991199,33.469259,2771,140,56,44,44,43,21,13332,"Georgia",828,"GA","Augusta",140720,21,13332,0,828,44,2771,33.469259,-81.991199
"391",140818,"Piedmont College",2013,"Demorest","30535-0010",-83.543216,34.56663,850,193,45,61,64,59,49,20730,"Georgia",2251,"GA","Demorest",140818,49,20730,0,2251,61,850,34.56663,-83.543216
"392",140872,"Reinhardt University",2013,"Waleska","30183-2981",-84.554657,34.318874,1111,260,34,51,50,54,66,18670,"Georgia",1283,"GA","Waleska",140872,66,18670,0,1283,51,1111,34.318874,-84.554657
"393",140951,"Savannah College of Art and Design",2013,"Savannah","31402-3146",-81.093905,32.072966,8292,1090,42,65,62,67,29,33450,"Georgia",9964,"GA","Savannah",140951,29,33450,0,9964,65,8292,32.072966,-81.093905
"394",140960,"Savannah State University",2013,"Savannah","31404-5310",-81.063377,32.024781,2922,916,57,83,83,83,51,5415,"Georgia",4193,"GA","Savannah",140960,51,5415,0,4193,83,2922,32.024781,-81.063377
"395",140988,"Shorter University",2013,"Rome","30165",-85.196213,34.258192,1597,205,61,68,69,67,28,19670,"Georgia",1560,"GA","Rome",140988,28,19670,0,1560,68,1597,34.258192,-85.196213
"396",141060,"Spelman College",2013,"Atlanta","30314-4399",-84.410118,33.74519,6081,387,55,38,NA,38,22,24634,"Georgia",2383,"GA","Atlanta",141060,22,24634,0,2383,38,6081,33.74519,-84.410118
"397",141097,"Southern Polytechnic State University",2013,"Marietta","30060-2896",-84.519276,33.938992,1689,639,46,78,79,73,57,5732,"Georgia",5258,"GA","Marietta",141097,57,5732,0,5258,78,1689,33.938992,-84.519276
"398",141167,"Thomas University",2013,"Thomasville","31792",-83.981478,30.813954,153,NA,NA,69,76,57,55,14740,"Georgia",969,"GA","Thomasville",141167,55,14740,0,969,69,153,30.813954,-83.981478
"399",141185,"Toccoa Falls College",2013,"Toccoa Falls","30598",-83.353462,34.59554,1253,117,39,49,49,49,28,19000,"Georgia",804,"GA","Toccoa Falls",141185,28,19000,0,804,49,1253,34.59554,-83.353462
"400",141237,"Truett-McConnell College",2013,"Cleveland","30528",-83.745972,34.594437,470,165,51,81,82,79,54,16610,"Georgia",886,"GA","Cleveland",141237,54,16610,0,886,81,470,34.594437,-83.745972
"401",141264,"Valdosta State University",2013,"Valdosta","31698",-83.289925,30.849236,5701,1175,30,55,55,55,54,5889,"Georgia",11155,"GA","Valdosta",141264,54,5889,0,11155,55,5701,30.849236,-83.289925
"402",141325,"Wesleyan College",2013,"Macon","31210-4462",-83.717186,32.874648,779,95,35,43,NA,43,35,19775,"Georgia",572,"GA","Macon",141325,35,19775,0,572,43,779,32.874648,-83.717186
"403",141334,"University of West Georgia",2013,"Carrollton","30118-0001",-85.099007,33.574421,7266,1689,52,54,50,56,56,5837,"Georgia",10358,"GA","Carrollton",141334,56,5837,0,10358,54,7266,33.574421,-85.099007
"404",141361,"Young Harris College",2013,"Young Harris","30582",-83.847765,34.93316,2179,341,44,54,52,55,36,25105,"Georgia",1038,"GA","Young Harris",141361,36,25105,0,1038,54,2179,34.93316,-83.847765
"405",141486,"Chaminade University of Honolulu",2013,"Honolulu","96816-1578",-157.807642,21.290274,914,192,29,84,87,82,35,20090,"Hawaii",2182,"HI","Honolulu",141486,35,20090,0,2182,84,914,21.290274,-157.807642
"406",141565,"University of Hawaii at Hilo",2013,"Hilo","96720-4091",-155.081329,19.701854,1633,404,8,75,72,77,36,6536,"Hawaii",3674,"HI","Hilo",141565,36,6536,0,3674,75,1633,19.701854,-155.081329
"407",141574,"University of Hawaii at Manoa",2013,"Honolulu","96822-2217",-157.816607,21.292648,6901,1507,11,80,78,81,35,9904,"Hawaii",17498,"HI","Honolulu",141574,35,9904,0,17498,80,6901,21.292648,-157.816607
"408",141644,"Hawaii Pacific University",2013,"Honolulu","96813",-157.859411,21.31028,4207,344,36,64,67,63,19,20180,"Hawaii",5506,"HI","Honolulu",141644,19,20180,0,5506,64,4207,21.31028,-157.859411
"409",141839,"University of Hawaii Maui College",2013,"Kahului","96732-1643",-156.479854,20.890561,NA,NA,NA,NA,NA,NA,NA,2670,"Hawaii",2492,"HI","Kahului",141839,NA,2670,NA,2492,NA,NA,20.890561,-156.479854
"410",141936,"World Medicine Institute",2013,"Honolulu","96821",-157.754719,21.296439,NA,NA,NA,NA,NA,NA,NA,NA,"Hawaii",51,"HI","Honolulu",141936,NA,NA,NA,51,NA,NA,21.296439,-157.754719
"411",141981,"University of Hawaii-West Oahu",2013,"Kapolei","96707-4507",-158.062444,21.353359,908,243,4,76,71,79,23,6336,"Hawaii",1303,"HI","Kapolei",141981,23,6336,0,1303,76,908,21.353359,-158.062444
"412",142090,"Boise Bible College",2013,"Boise","83714-1220",-116.290607,43.657437,65,26,26,100,100,100,72,11080,"Idaho",182,"ID","Boise",142090,72,11080,0,182,100,65,43.657437,-116.290607
"413",142115,"Boise State University",2013,"Boise","83725",-116.205789,43.604403,7832,1646,56,78,73,82,34,6292,"Idaho",16774,"ID","Boise",142115,34,6292,0,16774,78,7832,43.604403,-116.205789
"414",142276,"Idaho State University",2013,"Pocatello","83209",-112.429084,42.864108,NA,NA,NA,NA,NA,NA,NA,6344,"Idaho",10837,"ID","Pocatello",142276,NA,6344,NA,10837,NA,NA,42.864108,-112.429084
"415",142285,"University of Idaho",2013,"Moscow","83844-2282",-117.024296,46.726894,7455,823,71,66,67,64,33,6524,"Idaho",10845,"ID","Moscow",142285,33,6524,0,10845,66,7455,46.726894,-117.024296
"416",142294,"The College of Idaho",2013,"Caldwell","83605-4432",-116.676838,43.652653,1116,251,68,91,89,92,29,24055,"Idaho",1051,"ID","Caldwell",142294,29,24055,0,1051,91,1116,43.652653,-116.676838
"417",142328,"Lewis-Clark State College",2013,"Lewiston","83501-2698",-117.026371,46.410034,861,298,45,100,99,100,52,5786,"Idaho",3199,"ID","Lewiston",142328,52,5786,0,3199,100,861,46.410034,-117.026371
"418",142461,"Northwest Nazarene University",2013,"Nampa","83686-5897",-116.564792,43.563181,1227,201,66,62,63,61,34,26550,"Idaho",2290,"ID","Nampa",142461,34,26550,0,2290,62,1227,43.563181,-116.564792
"419",142522,"Brigham Young University-Idaho",2013,"Rexburg","83460-1690",-111.784728,43.815384,6690,1260,84,100,99,100,48,3850,"Idaho",30522,"ID","Rexburg",142522,48,3850,0,30522,100,6690,43.815384,-111.784728
"420",142832,"Adler School of Professional Psychology",2013,"Chicago","60602",-87.628651,41.88232,NA,NA,NA,NA,NA,NA,NA,NA,"Illinois",968,"IL","Chicago",142832,NA,NA,NA,968,NA,NA,41.88232,-87.628651
"421",143048,"School of the Art Institute of Chicago",2013,"Chicago","60603",-87.621411,41.879646,3782,339,33,72,65,75,21,40585,"Illinois",3269,"IL","Chicago",143048,21,40585,0,3269,72,3782,41.879646,-87.621411
"422",143084,"Augustana College",2013,"Rock Island","61201-2296",-90.552402,41.500326,5831,NA,NA,59,58,59,18,35835,"Illinois",2555,"IL","Rock Island",143084,18,35835,0,2555,59,5831,41.500326,-90.552402
"423",143118,"Aurora University",2013,"Aurora","60506-4892",-88.349469,41.754465,2536,43,93,76,77,75,34,20720,"Illinois",4596,"IL","Aurora",143118,34,20720,0,4596,76,2536,41.754465,-88.349469
"424",143233,"Bethany Theological Seminary",2013,"Richmond","47374-4019",-84.9099,39.8265,NA,NA,NA,NA,NA,NA,NA,NA,"Indiana",46,"IN","Richmond",143233,NA,NA,NA,46,NA,NA,39.8265,-84.9099
"425",143288,"Blackburn College",2013,"Carlinville","62626",-89.872248,39.288298,528,6,94,68,67,69,32,18506,"Illinois",541,"IL","Carlinville",143288,32,18506,0,541,68,528,39.288298,-89.872248
"426",143297,"Blessing Rieman College of Nursing",2013,"Quincy","62305-7005",-91.398548,39.935896,NA,NA,NA,NA,NA,NA,NA,NA,"Illinois",224,"IL","Quincy",143297,NA,NA,NA,224,NA,NA,39.935896,-91.398548
"427",143358,"Bradley University",2013,"Peoria","61625-0001",-89.61462,40.697605,8969,73,97,67,67,67,18,29664,"Illinois",5242,"IL","Peoria",143358,18,29664,0,5242,67,8969,40.697605,-89.61462
"428",143659,"Catholic Theological Union at Chicago",2013,"Chicago","60615-5698",-87.585772,41.798059,NA,NA,NA,NA,NA,NA,NA,NA,"Illinois",212,"IL","Chicago",143659,NA,NA,NA,212,NA,NA,41.798059,-87.585772
"429",143853,"Midwestern University-Downers Grove",2013,"Downers Grove","60515-5514",-88.000989,41.828376,NA,NA,NA,NA,NA,NA,NA,NA,"Illinois",2818,"IL","Downers Grove",143853,NA,NA,NA,2818,NA,NA,41.828376,-88.000989
"430",143978,"The Chicago School of Professional Psychology at Chicago",2013,"Chicago","60654",-87.633933,41.887903,NA,NA,NA,NA,NA,NA,NA,NA,"Illinois",3176,"IL","Chicago",143978,NA,NA,NA,3176,NA,NA,41.887903,-87.633933
"431",144005,"Chicago State University",2013,"Chicago","60628-1598",-87.610344,41.718813,5219,9,99,29,25,31,15,9032,"Illinois",4871,"IL","Chicago",144005,15,9032,0,4871,29,5219,41.718813,-87.610344
"432",144014,"Chicago Theological Seminary",2013,"Chicago","60637",-87.591301,41.786018,NA,NA,NA,NA,NA,NA,NA,NA,"Illinois",103,"IL","Chicago",144014,NA,NA,NA,103,NA,NA,41.786018,-87.591301
"433",144050,"University of Chicago",2013,"Chicago","60637",-87.601196,41.78917,30304,997,51,9,10,8,53,47514,"Illinois",13697,"IL","Chicago",144050,53,47514,1,13697,9,30304,41.78917,-87.601196
"434",144281,"Columbia College-Chicago",2013,"Chicago","60605-1996",-87.624554,41.873589,8005,NA,NA,91,87,93,29,22792,"Illinois",9711,"IL","Chicago",144281,29,22792,0,9711,91,8005,41.873589,-87.624554
"435",144351,"Concordia University-Chicago",2013,"River Forest","60305-1499",-87.810009,41.898574,3692,53,93,54,51,57,19,27598,"Illinois",3944,"IL","River Forest",144351,19,27598,0,3944,54,3692,41.898574,-87.810009
"436",144740,"DePaul University",2013,"Chicago","60604",-87.654116,41.923332,19957,481,86,60,58,61,20,33990,"Illinois",21647,"IL","Chicago",144740,20,33990,0,21647,60,19957,41.923332,-87.654116
"437",144883,"East-West University",2013,"Chicago","60605",-87.624793,41.871309,NA,NA,NA,NA,NA,NA,NA,18795,"Illinois",780,"IL","Chicago",144883,NA,18795,NA,780,NA,NA,41.871309,-87.624793
"438",144892,"Eastern Illinois University",2013,"Charleston","61920",-88.175505,39.483017,7881,0,99,62,59,64,27,11144,"Illinois",9414,"IL","Charleston",144892,27,11144,0,9414,62,7881,39.483017,-88.175505
"439",144962,"Elmhurst College",2013,"Elmhurst","60126-3096",-87.946096,41.899215,2702,41,94,72,71,72,26,32920,"Illinois",3364,"IL","Elmhurst",144962,26,32920,0,3364,72,2702,41.899215,-87.946096
"440",144971,"Eureka College",2013,"Eureka","61530",-89.268952,40.713042,960,3,92,68,62,73,21,20060,"Illinois",719,"IL","Eureka",144971,21,20060,0,719,68,960,40.713042,-89.268952
"441",145275,"Garrett-Evangelical Theological Seminary",2013,"Evanston","60201-3298",-87.676721,42.053318,NA,NA,NA,NA,NA,NA,NA,NA,"Illinois",304,"IL","Evanston",145275,NA,NA,NA,304,NA,NA,42.053318,-87.676721
"442",145336,"Governors State University",2013,"University Park","60484",-87.717012,41.448603,NA,NA,NA,NA,NA,NA,NA,NA,"Illinois",4230,"IL","University Park",145336,NA,NA,NA,4230,NA,NA,41.448603,-87.717012
"443",145372,"Greenville College",2013,"Greenville","62246",-89.409178,38.894751,1723,64,81,66,64,68,24,23612,"Illinois",1424,"IL","Greenville",145372,24,23612,0,1424,66,1723,38.894751,-89.409178
"444",145497,"Hebrew Theological College",2013,"Skokie","60077",-87.761119,42.011055,428,248,27,93,81,94,86,18605,"Illinois",520,"IL","Skokie",145497,86,18605,0,520,93,428,42.011055,-87.761119
"445",145558,"Rosalind Franklin University of Medicine and Science",2013,"North Chicago","60064-3095",-87.859632,42.300069,NA,NA,NA,NA,NA,NA,NA,NA,"Illinois",2108,"IL","North Chicago",145558,NA,NA,NA,2108,NA,NA,42.300069,-87.859632
"446",145600,"University of Illinois at Chicago",2013,"Chicago","60607",-87.651145,41.872651,14603,192,99,71,70,72,30,13410,"Illinois",28312,"IL","Chicago",145600,30,13410,0,28312,71,14603,41.872651,-87.651145
"447",145619,"Benedictine University",2013,"Lisle","60532-0900",-88.095948,41.776395,2108,0,91,69,68,71,43,25516,"Illinois",5694,"IL","Lisle",145619,43,25516,0,5694,69,2108,41.776395,-88.095948
"448",145628,"Illinois College of Optometry",2013,"Chicago","60616-3878",-87.623016,41.835447,NA,NA,NA,NA,NA,NA,NA,NA,"Illinois",626,"IL","Chicago",145628,NA,NA,NA,626,NA,NA,41.835447,-87.623016
"449",145637,"University of Illinois at Urbana-Champaign",2013,"Champaign","61820-5711",-88.230309,40.108864,33203,2048,79,62,60,65,35,14750,"Illinois",49108,"IL","Champaign",145637,35,14750,0,49108,62,33203,40.108864,-88.230309
"450",145646,"Illinois Wesleyan University",2013,"Bloomington","61702-2900",-88.990622,40.491522,3556,80,89,58,59,58,25,39316,"Illinois",2010,"IL","Bloomington",145646,25,39316,0,2010,58,3556,40.491522,-88.990622
"451",145691,"Illinois College",2013,"Jacksonville","62650-2299",-90.246256,39.730827,2560,27,85,61,59,64,17,27800,"Illinois",1039,"IL","Jacksonville",145691,17,27800,0,1039,61,2560,39.730827,-90.246256
"452",145725,"Illinois Institute of Technology",2013,"Chicago","60616",-87.628346,41.833801,2840,126,74,57,56,59,29,40117,"Illinois",7356,"IL","Chicago",145725,29,40117,0,7356,57,2840,41.833801,-87.628346
"453",145813,"Illinois State University",2013,"Normal","61790-1000",-88.99234,40.509724,15354,0,99,69,67,70,28,13010,"Illinois",18862,"IL","Normal",145813,28,13010,0,18862,69,15354,40.509724,-88.99234
"454",145886,"Institute for Clinical Social Work",2013,"Chicago","60605-1229",-87.627181,41.87635,NA,NA,NA,NA,NA,NA,NA,NA,"Illinois",55,"IL","Chicago",145886,NA,NA,NA,55,NA,NA,41.87635,-87.627181
"455",146241,"The John Marshall Law School",2013,"Chicago","60604",-87.628567,41.877966,NA,NA,NA,NA,NA,NA,NA,NA,"Illinois",1844,"IL","Chicago",146241,NA,NA,NA,1844,NA,NA,41.877966,-87.628567
"456",146339,"Judson University",2013,"Elgin","60123-1498",-88.289708,42.05896,737,23,88,71,70,71,36,27530,"Illinois",1133,"IL","Elgin",146339,36,27530,0,1133,71,737,42.05896,-88.289708
"457",146427,"Knox College",2013,"Galesburg","61401-9999",-90.370316,40.941829,2660,NA,NA,75,66,82,19,38952,"Illinois",1408,"IL","Galesburg",146427,19,38952,0,1408,75,2660,40.941829,-90.370316
"458",146481,"Lake Forest College",2013,"Lake Forest","60045-2399",-87.830777,42.250456,3684,94,78,57,53,60,19,39842,"Illinois",1598,"IL","Lake Forest",146481,19,39842,0,1598,57,3684,42.250456,-87.830777
"459",146490,"Lake Forest Graduate School of Management",2013,"Lake Forest","60045",-87.893204,42.243432,NA,NA,NA,NA,NA,NA,NA,NA,"Illinois",416,"IL","Lake Forest",146490,NA,NA,NA,416,NA,NA,42.243432,-87.893204
"460",146533,"Lakeview College of Nursing",2013,"Danville","61832",-87.644452,40.137179,NA,NA,NA,NA,NA,NA,NA,NA,"Illinois",215,"IL","Danville",146533,NA,NA,NA,215,NA,NA,40.137179,-87.644452
"461",146612,"Lewis University",2013,"Romeoville","60446-2200",-88.079032,41.605432,5432,19,96,56,54,57,23,26780,"Illinois",5739,"IL","Romeoville",146612,23,26780,0,5739,56,5432,41.605432,-88.079032
"462",146621,"Lexington College",2013,"Chicago","60607-3534",-87.681411,41.69692,37,1,82,89,NA,89,24,24875,"Illinois",52,"IL","Chicago",146621,24,24875,0,52,89,37,41.69692,-87.681411
"463",146667,"Lincoln Christian University",2013,"Lincoln","62656-2111",-89.34582,40.148897,176,5,58,69,61,75,53,16050,"Illinois",767,"IL","Lincoln",146667,53,16050,0,767,69,176,40.148897,-89.34582
"464",146676,"Lincoln College",2013,"Lincoln","62656",-89.360552,40.157141,1101,0,90,87,88,87,37,17500,"Illinois",1124,"IL","Lincoln",146676,37,17500,0,1124,87,1101,40.157141,-89.360552
"465",146719,"Loyola University Chicago",2013,"Chicago","60660",-87.657399,41.999161,14355,574,86,91,93,91,19,35573,"Illinois",14619,"IL","Chicago",146719,19,35573,0,14619,91,14355,41.999161,-87.657399
"466",146728,"Lutheran School of Theology at Chicago",2013,"Chicago","60615-5199",-87.599577,41.795064,NA,NA,NA,NA,NA,NA,NA,NA,"Illinois",86,"IL","Chicago",146728,NA,NA,NA,86,NA,NA,41.795064,-87.599577
"467",146755,"Trinity College of Nursing & Health Sciences",2013,"Rock Island","61201-5317",-90.57091,41.48559,3,NA,NA,0,NA,0,NA,26612,"Illinois",172,"IL","Rock Island",146755,NA,26612,1,172,0,3,41.48559,-90.57091
"468",146825,"MacMurray College",2013,"Jacksonville","62650-2590",-90.22175,39.730226,1027,9,98,75,72,80,16,22400,"Illinois",562,"IL","Jacksonville",146825,16,22400,0,562,75,1027,39.730226,-90.22175
"469",146977,"McCormick Theological Seminary",2013,"Chicago","60615",-87.5961,41.793514,NA,NA,NA,NA,NA,NA,NA,NA,"Illinois",102,"IL","Chicago",146977,NA,NA,NA,102,NA,NA,41.793514,-87.5961
"470",147013,"McKendree University",2013,"Lebanon","62254-1291",-89.814486,38.609431,1617,29,93,63,59,68,38,26050,"Illinois",2564,"IL","Lebanon",147013,38,26050,0,2564,63,1617,38.609431,-89.814486
"471",147031,"Meadville Lombard Theological School",2013,"Chicago","60605",-87.624801,41.87404,NA,NA,NA,NA,NA,NA,NA,NA,"Illinois",79,"IL","Chicago",147031,NA,NA,NA,79,NA,NA,41.87404,-87.624801
"472",147129,"Methodist College",2013,"Peoria","61603",-89.591277,40.70017,44,0,93,86,67,88,37,17030,"Illinois",619,"IL","Peoria",147129,37,17030,0,619,86,44,40.70017,-89.591277
"473",147244,"Millikin University",2013,"Decatur","62522-2084",-88.974571,39.842604,3906,27,96,55,53,57,21,28644,"Illinois",2419,"IL","Decatur",147244,21,28644,0,2419,55,3906,39.842604,-88.974571
"474",147341,"Monmouth College",2013,"Monmouth","61462-1998",-90.637909,40.91459,2973,5,95,64,61,67,21,31500,"Illinois",1252,"IL","Monmouth",147341,21,31500,0,1252,64,2973,40.91459,-90.637909
"475",147369,"Moody Bible Institute",2013,"Chicago","60610-3284",-87.633459,41.897822,1024,NA,NA,69,70,67,60,11356,"Illinois",3149,"IL","Chicago",147369,60,11356,0,3149,69,1024,41.897822,-87.633459
"476",147536,"National Louis University",2013,"Chicago","60603",-87.624805,41.879826,84,NA,NA,99,96,100,20,15915,"Illinois",4093,"IL","Chicago",147536,20,15915,0,4093,99,84,41.879826,-87.624805
"477",147590,"National University of Health Sciences",2013,"Lombard","60148-4583",-88.013153,41.861919,NA,NA,NA,NA,NA,NA,NA,NA,"Illinois",1149,"IL","Lombard",147590,NA,NA,NA,1149,NA,NA,41.861919,-88.013153
"478",147660,"North Central College",2013,"Naperville","60540",-88.143649,41.775304,4082,33,96,64,62,65,20,32613,"Illinois",2860,"IL","Naperville",147660,20,32613,0,2860,64,4082,41.775304,-88.143649
"479",147679,"North Park University",2013,"Chicago","60625-4895",-87.709142,41.9751,3961,71,86,52,47,56,18,23350,"Illinois",2622,"IL","Chicago",147679,18,23350,0,2622,52,3961,41.9751,-87.709142
"480",147697,"Northern Baptist Theological Seminary",2013,"Lombard","60148-5698",-87.99844,41.840512,NA,NA,NA,NA,NA,NA,NA,NA,"Illinois",92,"IL","Lombard",147697,NA,NA,NA,92,NA,NA,41.840512,-87.99844
"481",147703,"Northern Illinois University",2013,"Dekalb","60115-2828",-88.766065,41.933791,25914,77,96,56,57,56,18,12976,"Illinois",18539,"IL","Dekalb",147703,18,12976,0,18539,56,25914,41.933791,-88.766065
"482",147767,"Northwestern University",2013,"Evanston","60208",-87.673653,42.058377,32060,1298,60,15,16,15,41,45527,"Illinois",19038,"IL","Evanston",147767,41,45527,0,19038,15,32060,42.058377,-87.673653
"483",147776,"Northeastern Illinois University",2013,"Chicago","60625-4699",-87.72013,41.980567,5350,0,95,60,57,62,24,8460,"Illinois",8004,"IL","Chicago",147776,24,8460,0,8004,60,5350,41.980567,-87.72013
"484",147828,"Olivet Nazarene University",2013,"Bourbonnais","60914-2271",-87.873654,41.155489,3719,0,96,82,81,83,25,29890,"Illinois",4731,"IL","Bourbonnais",147828,25,29890,0,4731,82,3719,41.155489,-87.873654
"485",148131,"Quincy University",2013,"Quincy","62301-2699",-91.387928,39.939235,1078,9,97,89,88,89,29,25834,"Illinois",1520,"IL","Quincy",148131,29,25834,0,1520,89,1078,39.939235,-91.387928
"486",148335,"Robert Morris University Illinois",2013,"Chicago","60605",-87.627068,41.876278,4080,NA,NA,21,23,19,84,22800,"Illinois",3975,"IL","Chicago",148335,84,22800,0,3975,21,4080,41.876278,-87.627068
"487",148405,"Rockford University",2013,"Rockford","61108-2311",-89.019536,42.270639,1074,6,92,41,41,41,24,26710,"Illinois",1182,"IL","Rockford",148405,24,26710,0,1182,41,1074,42.270639,-89.019536
